[
  {
    "Stop ID":20,
    "Abreviation":"ADELADA1",
    "Stop Name":"Adelaide at Ada NB - #20",
    "Lat":42.974289,
    "Long":-81.225234,
    "Routes":[
      "Rt16"
    ]
  },
  {
    "Stop ID":21,
    "Abreviation":"ADELADA2",
    "Stop Name":"Adelaide at Ada SB - #21",
    "Lat":42.97461,
    "Long":-81.225615,
    "Routes":[
      "Rt16"
    ]
  },
  {
    "Stop ID":22,
    "Abreviation":"ADELCEN1",
    "Stop Name":"Adelaide at Central  NB - #22",
    "Lat":42.994567,
    "Long":-81.234344,
    "Routes":[
      "Rt16"
    ]
  },
  {
    "Stop ID":23,
    "Abreviation":"ADELCEN2",
    "Stop Name":"Adelaide at Central  SB - #23",
    "Lat":42.99494,
    "Long":-81.234663,
    "Routes":[
      "Rt16"
    ]
  },
  {
    "Stop ID":24,
    "Abreviation":"ADELCHE1",
    "Stop Name":"Adelaide at Cheapside NB - #24",
    "Lat":43.00647,
    "Long":-81.240181,
    "Routes":[
      "Rt1",
      " Rt16",
      " Rt92"
    ]
  },
  {
    "Stop ID":25,
    "Abreviation":"ADELCHE2",
    "Stop Name":"Adelaide at Cheapside SB - #25",
    "Lat":43.005866,
    "Long":-81.240088,
    "Routes":[
      "Rt16",
      " Rt92"
    ]
  },
  {
    "Stop ID":27,
    "Abreviation":"ADELDUN1",
    "Stop Name":"Adelaide at Dundas NB - #27",
    "Lat":42.989214,
    "Long":-81.231686,
    "Routes":[
      "Rt16",
      " Rt92"
    ]
  },
  {
    "Stop ID":28,
    "Abreviation":"ADELDUN2",
    "Stop Name":"Adelaide at Dundas SB - #28",
    "Lat":42.988343,
    "Long":-81.231467,
    "Routes":[
      "Rt16",
      " Rt92"
    ]
  },
  {
    "Stop ID":29,
    "Abreviation":"ADELEDNA",
    "Stop Name":"Adelaide at Edna SB - #29",
    "Lat":42.971883,
    "Long":-81.224342,
    "Routes":[
      "Rt16",
      " Rt92"
    ]
  },
  {
    "Stop ID":32,
    "Abreviation":"ADELFAN2",
    "Stop Name":"Adelaide at Fanshawe Pk Rd SB - #32",
    "Lat":43.034328,
    "Long":-81.254625,
    "Routes":[
      "Rt16",
      " Rt92"
    ]
  },
  {
    "Stop ID":33,
    "Abreviation":"ADELGLEN",
    "Stop Name":"Adelaide at Glenora NB - #33",
    "Lat":43.029017,
    "Long":-81.251604,
    "Routes":[
      "Rt16",
      " Rt34"
    ]
  },
  {
    "Stop ID":34,
    "Abreviation":"ADELGRO1",
    "Stop Name":"Adelaide at Grosvenor NB - #34",
    "Lat":43.004337,
    "Long":-81.239172,
    "Routes":[
      "Rt16"
    ]
  },
  {
    "Stop ID":35,
    "Abreviation":"ADELGRO2",
    "Stop Name":"Adelaide at Grosvenor SB - #35",
    "Lat":43.004249,
    "Long":-81.239265,
    "Routes":[
      "Rt16"
    ]
  },
  {
    "Stop ID":36,
    "Abreviation":"ADELHAMI",
    "Stop Name":"Adelaide at Hamilton SB - #36",
    "Lat":42.982275,
    "Long":-81.228829,
    "Routes":[
      "Rt16",
      " Rt92"
    ]
  },
  {
    "Stop ID":37,
    "Abreviation":"ADELHIL1",
    "Stop Name":"Adelaide at Hill NB - #37",
    "Lat":42.979827,
    "Long":-81.227608,
    "Routes":[
      "Rt16"
    ]
  },
  {
    "Stop ID":38,
    "Abreviation":"ADELHIL2",
    "Stop Name":"Adelaide at Hill SB - #38",
    "Lat":42.980363,
    "Long":-81.227992,
    "Routes":[
      "Rt16"
    ]
  },
  {
    "Stop ID":39,
    "Abreviation":"ADELHUR1",
    "Stop Name":"Adelaide at Huron  NB - #39",
    "Lat":43.012606,
    "Long":-81.243443,
    "Routes":[
      "Rt1",
      " Rt16",
      " Rt27",
      " Rt92"
    ]
  },
  {
    "Stop ID":40,
    "Abreviation":"ADELHUR2",
    "Stop Name":"Adelaide at Huron SB - #40",
    "Lat":43.011146,
    "Long":-81.24272,
    "Routes":[
      "Rt1",
      " Rt16",
      " Rt92"
    ]
  },
  {
    "Stop ID":42,
    "Abreviation":"ADELHUR5",
    "Stop Name":"Opposite 1145 Adelaide NB - #42",
    "Lat":43.015827,
    "Long":-81.245032,
    "Routes":[
      "Rt1",
      " Rt16",
      " Rt27"
    ]
  },
  {
    "Stop ID":43,
    "Abreviation":"ADELKIP1",
    "Stop Name":"Adelaide north of Kipps Lane  NB - #43",
    "Lat":43.018099,
    "Long":-81.246148,
    "Routes":[
      "Rt16",
      " Rt92"
    ]
  },
  {
    "Stop ID":44,
    "Abreviation":"ADELKIP2",
    "Stop Name":"Adelaide north of Kipps Lane SB - #44",
    "Lat":43.01775,
    "Long":-81.24618,
    "Routes":[
      "Rt16",
      " Rt92"
    ]
  },
  {
    "Stop ID":47,
    "Abreviation":"ADELKIP6",
    "Stop Name":"Adelaide south of Kipps Lane 2 SB - #47",
    "Lat":43.014658,
    "Long":-81.244642,
    "Routes":[
      "Rt16",
      " Rt27"
    ]
  },
  {
    "Stop ID":48,
    "Abreviation":"ADELLEA1",
    "Stop Name":"Adelaide south of Leathorne St NB - #48",
    "Lat":42.960884,
    "Long":-81.216852,
    "Routes":[
      "Rt16",
      " Rt92"
    ]
  },
  {
    "Stop ID":49,
    "Abreviation":"ADELLEA2",
    "Stop Name":"Adelaide at Leathorne SB - #49",
    "Lat":42.961015,
    "Long":-81.217334,
    "Routes":[
      "Rt16",
      " Rt92"
    ]
  },
  {
    "Stop ID":50,
    "Abreviation":"ADELLEA3",
    "Stop Name":"Adelaide north of Leathorne 1 NB - #50",
    "Lat":42.962904,
    "Long":-81.220032,
    "Routes":[
      "Rt16"
    ]
  },
  {
    "Stop ID":52,
    "Abreviation":"ADELLEA5",
    "Stop Name":"Adelaide north of Leathorne 2 NB - #52",
    "Lat":42.963991,
    "Long":-81.220618,
    "Routes":[
      "Rt16"
    ]
  },
  {
    "Stop ID":53,
    "Abreviation":"ADELLISI",
    "Stop Name":"Adelaide at Little Simcoe NB - #53",
    "Lat":42.982516,
    "Long":-81.228761,
    "Routes":[
      "Rt16",
      " Rt92"
    ]
  },
  {
    "Stop ID":54,
    "Abreviation":"ADELLORN",
    "Stop Name":"Adelaide at Lorne NB - #54",
    "Lat":42.992328,
    "Long":-81.233229,
    "Routes":[
      "Rt16"
    ]
  },
  {
    "Stop ID":55,
    "Abreviation":"ADELMAPL",
    "Stop Name":"Adelaide at Mapledale SB - #55",
    "Lat":43.031429,
    "Long":-81.253063,
    "Routes":[
      "Rt16"
    ]
  },
  {
    "Stop ID":56,
    "Abreviation":"ADELMAUD",
    "Stop Name":"Adelaide at Maud NB - #56",
    "Lat":42.970708,
    "Long":-81.223681,
    "Routes":[
      "Rt16",
      " Rt92"
    ]
  },
  {
    "Stop ID":57,
    "Abreviation":"ADELMCMA",
    "Stop Name":"Adelaide at McMahen NB - #57",
    "Lat":42.997642,
    "Long":-81.23587,
    "Routes":[
      "Rt16"
    ]
  },
  {
    "Stop ID":58,
    "Abreviation":"ADELNEL1",
    "Stop Name":"Adelaide at Nelson NB - #58",
    "Lat":42.977567,
    "Long":-81.226683,
    "Routes":[
      "Rt16"
    ]
  },
  {
    "Stop ID":59,
    "Abreviation":"ADELNEL2",
    "Stop Name":"Adelaide at Nelson SB - #59",
    "Lat":42.977503,
    "Long":-81.226792,
    "Routes":[
      "Rt16"
    ]
  },
  {
    "Stop ID":60,
    "Abreviation":"ADELOSG1",
    "Stop Name":"Adelaide at SE Osgoode NB - #60",
    "Lat":42.93825,
    "Long":-81.209242,
    "Routes":[
      "Rt13"
    ]
  },
  {
    "Stop ID":61,
    "Abreviation":"ADELOSG2",
    "Stop Name":"Adelaide at NW Osgoode SB - #61",
    "Lat":42.941834,
    "Long":-81.213008,
    "Routes":[
      "Rt10"
    ]
  },
  {
    "Stop ID":62,
    "Abreviation":"ADELOSG3",
    "Stop Name":"Adelaide at NE Osgoode NB - #62",
    "Lat":42.942427,
    "Long":-81.213344,
    "Routes":[
      "Rt10"
    ]
  },
  {
    "Stop ID":63,
    "Abreviation":"ADELOSG4",
    "Stop Name":"Adelaide at SE Osgoode SB - #63",
    "Lat":42.937296,
    "Long":-81.20903,
    "Routes":[
      "Rt10"
    ]
  },
  {
    "Stop ID":64,
    "Abreviation":"ADELOSG5",
    "Stop Name":"Adelaide at SE Osgoode NS NB - #64",
    "Lat":42.937249,
    "Long":-81.208782,
    "Routes":[
      "Rt10"
    ]
  },
  {
    "Stop ID":65,
    "Abreviation":"ADELOSG6",
    "Stop Name":"Adelaide at SW Osgoode SB - #65",
    "Lat":42.939001,
    "Long":-81.2102,
    "Routes":[
      "Rt10"
    ]
  },
  {
    "Stop ID":66,
    "Abreviation":"ADELOSG7",
    "Stop Name":"Adelaide at Osgoode 3 NB - #66",
    "Lat":42.939237,
    "Long":-81.210169,
    "Routes":[
      "Rt10"
    ]
  },
  {
    "Stop ID":67,
    "Abreviation":"ADELOXF1",
    "Stop Name":"Adelaide at Oxford  NB - #67",
    "Lat":43.00054,
    "Long":-81.23728,
    "Routes":[
      "Rt16",
      " Rt92"
    ]
  },
  {
    "Stop ID":68,
    "Abreviation":"ADELOXF2",
    "Stop Name":"Adelaide at Oxford SB - #68",
    "Lat":43.000449,
    "Long":-81.237393,
    "Routes":[
      "Rt16",
      " Rt92"
    ]
  },
  {
    "Stop ID":69,
    "Abreviation":"ADELPAMA",
    "Stop Name":"Adelaide at Pall Mall SB - #69",
    "Lat":42.996487,
    "Long":-81.235428,
    "Routes":[
      "Rt16"
    ]
  },
  {
    "Stop ID":70,
    "Abreviation":"ADELPIC1",
    "Stop Name":"Adelaide at Piccadilly NB - #70",
    "Lat":42.99887,
    "Long":-81.236488,
    "Routes":[
      "Rt16"
    ]
  },
  {
    "Stop ID":71,
    "Abreviation":"ADELPIC2",
    "Stop Name":"Adelaide at Piccadilly SB - #71",
    "Lat":42.999014,
    "Long":-81.236686,
    "Routes":[
      "Rt16"
    ]
  },
  {
    "Stop ID":72,
    "Abreviation":"ADELPRIN",
    "Stop Name":"Adelaide at Princess SB - #72",
    "Lat":42.992506,
    "Long":-81.233465,
    "Routes":[
      "Rt16"
    ]
  },
  {
    "Stop ID":73,
    "Abreviation":"ADELQUEE",
    "Stop Name":"Adelaide at Queens SB - #73",
    "Lat":42.990215,
    "Long":-81.232309,
    "Routes":[
      "Rt16"
    ]
  },
  {
    "Stop ID":74,
    "Abreviation":"ADELREG1",
    "Stop Name":"Adelaide at Regent NB - #74",
    "Lat":43.010802,
    "Long":-81.242321,
    "Routes":[
      "Rt1",
      " Rt16"
    ]
  },
  {
    "Stop ID":76,
    "Abreviation":"ADELROSE",
    "Stop Name":"Adelaide at Rosedale SB - #76",
    "Lat":42.993791,
    "Long":-81.234088,
    "Routes":[
      "Rt16"
    ]
  },
  {
    "Stop ID":77,
    "Abreviation":"ADELSDAL",
    "Stop Name":"Adelaide at Southdale SB - #77",
    "Lat":42.943708,
    "Long":-81.214531,
    "Routes":[
      "Rt10"
    ]
  },
  {
    "Stop ID":78,
    "Abreviation":"ADELSJA1",
    "Stop Name":"Adelaide at St. James NB - #78",
    "Lat":43.002071,
    "Long":-81.238032,
    "Routes":[
      "Rt16"
    ]
  },
  {
    "Stop ID":79,
    "Abreviation":"ADELSJA2",
    "Stop Name":"Adelaide at St. James SB - #79",
    "Lat":43.002171,
    "Long":-81.238249,
    "Routes":[
      "Rt16"
    ]
  },
  {
    "Stop ID":80,
    "Abreviation":"ADELTENN",
    "Stop Name":"Adelaide at Tennant NB - #80",
    "Lat":43.030845,
    "Long":-81.252483,
    "Routes":[
      "Rt16"
    ]
  },
  {
    "Stop ID":81,
    "Abreviation":"ADELTERR",
    "Stop Name":"Adelaide at Terrace NB - #81",
    "Lat":42.972963,
    "Long":-81.224651,
    "Routes":[
      "Rt16"
    ]
  },
  {
    "Stop ID":82,
    "Abreviation":"ADELTHO1",
    "Stop Name":"Adelaide at Thompson NB - #82",
    "Lat":42.968564,
    "Long":-81.222737,
    "Routes":[
      "Rt16"
    ]
  },
  {
    "Stop ID":83,
    "Abreviation":"ADELTHO2",
    "Stop Name":"207 Adelaide - #83",
    "Lat":42.964134,
    "Long":-81.220869,
    "Routes":[
      "Rt16"
    ]
  },
  {
    "Stop ID":84,
    "Abreviation":"ADELTHO4",
    "Stop Name":"Adelaide at Thompson SB - #84",
    "Lat":42.967775,
    "Long":-81.222568,
    "Routes":[
      "Rt16"
    ]
  },
  {
    "Stop ID":85,
    "Abreviation":"ADELTHO6",
    "Stop Name":"155 Adelaide SB - #85",
    "Lat":42.965996,
    "Long":-81.221812,
    "Routes":[
      "Rt16"
    ]
  },
  {
    "Stop ID":86,
    "Abreviation":"ADELTHO8",
    "Stop Name":"247 Adelaide SB - #86",
    "Lat":42.962455,
    "Long":-81.219962,
    "Routes":[
      "Rt16"
    ]
  },
  {
    "Stop ID":87,
    "Abreviation":"ADELVIC1",
    "Stop Name":"Adelaide at Victoria NB - #87",
    "Lat":43.008164,
    "Long":-81.241064,
    "Routes":[
      "Rt1",
      " Rt16"
    ]
  },
  {
    "Stop ID":88,
    "Abreviation":"ADELVIC2",
    "Stop Name":"Adelaide at Victoria SB - #88",
    "Lat":43.008394,
    "Long":-81.241297,
    "Routes":[
      "Rt1",
      " Rt16"
    ]
  },
  {
    "Stop ID":89,
    "Abreviation":"ADELWIN1",
    "Stop Name":"Adelaide at Winderemere NB - #89",
    "Lat":43.023541,
    "Long":-81.248807,
    "Routes":[
      "Rt16",
      " Rt34"
    ]
  },
  {
    "Stop ID":90,
    "Abreviation":"ADELWIN2",
    "Stop Name":"Adelaide at Winderemere SB - #90",
    "Lat":43.023444,
    "Long":-81.249048,
    "Routes":[
      "Rt16",
      " Rt34"
    ]
  },
  {
    "Stop ID":93,
    "Abreviation":"ADMIBON1",
    "Stop Name":"Admiral at Bonaventure EB - #93",
    "Lat":43.003065,
    "Long":-81.154082,
    "Routes":[
      "Rt35"
    ]
  },
  {
    "Stop ID":94,
    "Abreviation":"ADMIBON2",
    "Stop Name":"Admiral at Bonaventure WB - #94",
    "Lat":43.003092,
    "Long":-81.154332,
    "Routes":[
      "Rt2"
    ]
  },
  {
    "Stop ID":95,
    "Abreviation":"ADMICAR1",
    "Stop Name":"Admiral at Carlyle EB - #95",
    "Lat":43.001932,
    "Long":-81.158102,
    "Routes":[
      "Rt35"
    ]
  },
  {
    "Stop ID":96,
    "Abreviation":"ADMICAR2",
    "Stop Name":"Admiral at Carlyle WB - #96",
    "Lat":43.00203,
    "Long":-81.158034,
    "Routes":[
      "Rt2"
    ]
  },
  {
    "Stop ID":97,
    "Abreviation":"ADMIKIP1",
    "Stop Name":"319 Admiral - #97",
    "Lat":42.999776,
    "Long":-81.161407,
    "Routes":[
      "Rt35"
    ]
  },
  {
    "Stop ID":100,
    "Abreviation":"ADMISOVE",
    "Stop Name":"Admiral at Sovereign WB - #100",
    "Lat":43.004599,
    "Long":-81.148364,
    "Routes":[
      "Rt37"
    ]
  },
  {
    "Stop ID":101,
    "Abreviation":"ADMIVAU1",
    "Stop Name":"Admiral at Vaubois EB - #101",
    "Lat":43.002464,
    "Long":-81.156352,
    "Routes":[
      "Rt35"
    ]
  },
  {
    "Stop ID":102,
    "Abreviation":"ADMIVAU3",
    "Stop Name":"Admiral at Vaubois WB - #102",
    "Lat":43.002581,
    "Long":-81.15622,
    "Routes":[
      "Rt2"
    ]
  },
  {
    "Stop ID":104,
    "Abreviation":"ADMIVMP2",
    "Stop Name":"Admiral at Veterans Memorial Pkwy WB - #104",
    "Lat":43.003977,
    "Long":-81.150998,
    "Routes":[
      "Rt37"
    ]
  },
  {
    "Stop ID":114,
    "Abreviation":"ALDEARD1",
    "Stop Name":"Aldersbrook at Ardsley NB - #114",
    "Lat":43.001538,
    "Long":-81.314869,
    "Routes":[
      "Rt31"
    ]
  },
  {
    "Stop ID":115,
    "Abreviation":"ALDEARD2",
    "Stop Name":"Aldersbrook at Ardsley SB - #115",
    "Lat":43.001494,
    "Long":-81.314973,
    "Routes":[
      "Rt31"
    ]
  },
  {
    "Stop ID":116,
    "Abreviation":"ALDEAURO",
    "Stop Name":"Aldersbrook at Aurora SB - #116",
    "Lat":42.993378,
    "Long":-81.307808,
    "Routes":[
      "Rt31"
    ]
  },
  {
    "Stop ID":117,
    "Abreviation":"ALDEBARR",
    "Stop Name":"Aldersbrook at Barrydale SB - #117",
    "Lat":42.993947,
    "Long":-81.311052,
    "Routes":[
      "Rt31"
    ]
  },
  {
    "Stop ID":119,
    "Abreviation":"ALDEBLA2",
    "Stop Name":"Aldersbrook at Blackacres SB - #119",
    "Lat":43.011434,
    "Long":-81.321682,
    "Routes":[
      "Rt31"
    ]
  },
  {
    "Stop ID":120,
    "Abreviation":"ALDEBLA3",
    "Stop Name":"Aldersbrook north of Blackacres NB - #120",
    "Lat":43.012055,
    "Long":-81.321538,
    "Routes":[
      "Rt9",
      " Rt31"
    ]
  },
  {
    "Stop ID":121,
    "Abreviation":"ALDEBRAN",
    "Stop Name":"Aldersbrook at Brandy Lane NB - #121",
    "Lat":42.994024,
    "Long":-81.311112,
    "Routes":[
      "Rt31"
    ]
  },
  {
    "Stop ID":122,
    "Abreviation":"ALDEBRU1",
    "Stop Name":"Aldersbrook at Brunswick NB - #122",
    "Lat":42.999184,
    "Long":-81.315359,
    "Routes":[
      "Rt31"
    ]
  },
  {
    "Stop ID":123,
    "Abreviation":"ALDEBRU2",
    "Stop Name":"Aldersbrook at Brunswick SB - #123",
    "Lat":42.999267,
    "Long":-81.31545,
    "Routes":[
      "Rt31"
    ]
  },
  {
    "Stop ID":126,
    "Abreviation":"ALDEGAI1",
    "Stop Name":"Aldersbrook at Gainsborough NB - #126",
    "Lat":43.003132,
    "Long":-81.315752,
    "Routes":[
      "Rt31"
    ]
  },
  {
    "Stop ID":127,
    "Abreviation":"ALDEGAI2",
    "Stop Name":"Aldersbrook at Gainsborough SB - #127",
    "Lat":43.003719,
    "Long":-81.316164,
    "Routes":[
      "Rt31"
    ]
  },
  {
    "Stop ID":128,
    "Abreviation":"ALDEHAW1",
    "Stop Name":"Aldersbrook at Hawthorne NB - #128",
    "Lat":43.006761,
    "Long":-81.318598,
    "Routes":[
      "Rt31"
    ]
  },
  {
    "Stop ID":129,
    "Abreviation":"ALDEHAW2",
    "Stop Name":"Aldersbrook at Hawthorne SB - #129",
    "Lat":43.006554,
    "Long":-81.318479,
    "Routes":[
      "Rt31"
    ]
  },
  {
    "Stop ID":130,
    "Abreviation":"ALDELAW1",
    "Stop Name":"Aldersbrook at Lawson NB - #130",
    "Lat":42.994294,
    "Long":-81.312784,
    "Routes":[
      "Rt31"
    ]
  },
  {
    "Stop ID":131,
    "Abreviation":"ALDELAW2",
    "Stop Name":"Aldersbrook at Lawson SB - #131",
    "Lat":42.994256,
    "Long":-81.312906,
    "Routes":[
      "Rt31"
    ]
  },
  {
    "Stop ID":132,
    "Abreviation":"ALDERAN1",
    "Stop Name":"Aldersbrook at Ranchwood NB - #132",
    "Lat":43.004819,
    "Long":-81.317311,
    "Routes":[
      "Rt31"
    ]
  },
  {
    "Stop ID":134,
    "Abreviation":"ALDEREX1",
    "Stop Name":"Aldersbrook at Rexway NB - #134",
    "Lat":43.008857,
    "Long":-81.320511,
    "Routes":[
      "Rt31"
    ]
  },
  {
    "Stop ID":135,
    "Abreviation":"ALDEREX2",
    "Stop Name":"Aldersbrook at Rexway SB - #135",
    "Lat":43.008817,
    "Long":-81.320612,
    "Routes":[
      "Rt31"
    ]
  },
  {
    "Stop ID":136,
    "Abreviation":"ALDESOCT",
    "Stop Name":"Aldersbrook at Southcott Crt WB - #136",
    "Lat":42.99338,
    "Long":-81.307674,
    "Routes":[
      "Rt31"
    ]
  },
  {
    "Stop ID":137,
    "Abreviation":"ALDESPR1",
    "Stop Name":"Aldersbrook at Brandy Ln N Leg NB - #137",
    "Lat":42.996819,
    "Long":-81.314796,
    "Routes":[
      "Rt31"
    ]
  },
  {
    "Stop ID":138,
    "Abreviation":"ALDESPR2",
    "Stop Name":"Aldersbrook at Brandy Ln SB - #138",
    "Lat":42.996742,
    "Long":-81.314911,
    "Routes":[
      "Rt31"
    ]
  },
  {
    "Stop ID":141,
    "Abreviation":"ALUMHAL1",
    "Stop Name":"Alumni Hall EB - #141",
    "Lat":43.006041,
    "Long":-81.274944,
    "Routes":[
      "Rt2",
      " Rt10",
      " Rt27",
      " Rt34",
      " Rt102"
    ]
  },
  {
    "Stop ID":142,
    "Abreviation":"ALUMHAL2",
    "Stop Name":"Alumni Hall WB - #142",
    "Lat":43.006319,
    "Long":-81.275351,
    "Routes":[
      "Rt31",
      " Rt33"
    ]
  },
  {
    "Stop ID":145,
    "Abreviation":"AMBLGRA2",
    "Stop Name":"Ambleside at Grasmere Cres WB - #145",
    "Lat":43.016358,
    "Long":-81.285108,
    "Routes":[
      "Rt34"
    ]
  },
  {
    "Stop ID":147,
    "Abreviation":"AMBLHILL",
    "Stop Name":"Ambleside at Hillside WB - #147",
    "Lat":43.017645,
    "Long":-81.280695,
    "Routes":[
      "Rt34"
    ]
  },
  {
    "Stop ID":149,
    "Abreviation":"AMBLWHI1",
    "Stop Name":"Ambleside at Whitehaven WB - #149",
    "Lat":43.019798,
    "Long":-81.292995,
    "Routes":[
      "Rt34"
    ]
  },
  {
    "Stop ID":150,
    "Abreviation":"AMBLWHI2",
    "Stop Name":"286 Ambleside - #150",
    "Lat":43.021005,
    "Long":-81.294306,
    "Routes":[
      "Rt34"
    ]
  },
  {
    "Stop ID":154,
    "Abreviation":"ANDOCOM1",
    "Stop Name":"Andover at Commissioners NB - #154",
    "Lat":42.955725,
    "Long":-81.275336,
    "Routes":[
      "Rt15"
    ]
  },
  {
    "Stop ID":155,
    "Abreviation":"ANDOCOM2",
    "Stop Name":"Andover at Commissioners SB - #155",
    "Lat":42.955721,
    "Long":-81.275497,
    "Routes":[
      "Rt15"
    ]
  },
  {
    "Stop ID":156,
    "Abreviation":"ANDOELMG",
    "Stop Name":"Andover at Elmgrove Cr SB - #156",
    "Lat":42.951688,
    "Long":-81.275511,
    "Routes":[
      "Rt15"
    ]
  },
  {
    "Stop ID":158,
    "Abreviation":"ANDONOVE",
    "Stop Name":"Andover at Novello NB - #158",
    "Lat":42.952839,
    "Long":-81.275472,
    "Routes":[
      "Rt15"
    ]
  },
  {
    "Stop ID":160,
    "Abreviation":"ANDOVIG1",
    "Stop Name":"Andover at Village Green NB - #160",
    "Lat":42.953684,
    "Long":-81.275744,
    "Routes":[
      "Rt15"
    ]
  },
  {
    "Stop ID":161,
    "Abreviation":"ANDOVIG2",
    "Stop Name":"Andover at Village Green SB - #161",
    "Lat":42.95356,
    "Long":-81.275802,
    "Routes":[
      "Rt15"
    ]
  },
  {
    "Stop ID":163,
    "Abreviation":"ANDOVIS2",
    "Stop Name":"Andover at Viscount SB - #163",
    "Lat":42.948172,
    "Long":-81.275288,
    "Routes":[
      "Rt15"
    ]
  },
  {
    "Stop ID":164,
    "Abreviation":"ANDOVIS3",
    "Stop Name":"Andover north of Viscount  NB - #164",
    "Lat":42.948217,
    "Long":-81.275205,
    "Routes":[
      "Rt15"
    ]
  },
  {
    "Stop ID":166,
    "Abreviation":"ARGYMAL1",
    "Stop Name":"Argyle Mall SB - Stop 1 - #166",
    "Lat":43.002596,
    "Long":-81.17356,
    "Routes":[
      "Rt2",
      " Rt3",
      " Rt5",
      " Rt7",
      " Rt35",
      " Rt37",
      " Rt38"
    ]
  },
  {
    "Stop ID":167,
    "Abreviation":"ARGYMAL2",
    "Stop Name":"Argyle Mall NB - Stop 2 - #167",
    "Lat":43.002643,
    "Long":-81.173369,
    "Routes":[
      "Rt2",
      " Rt7",
      " Rt17",
      " Rt94"
    ]
  },
  {
    "Stop ID":168,
    "Abreviation":"ASHBMIL1",
    "Stop Name":"Ashbury at Millbank EB - #168",
    "Lat":42.937301,
    "Long":-81.202254,
    "Routes":[
      "Rt13"
    ]
  },
  {
    "Stop ID":169,
    "Abreviation":"ASHBMIL2",
    "Stop Name":"Ashbury at Millbank WB - #169",
    "Lat":42.937358,
    "Long":-81.202382,
    "Routes":[
      "Rt13"
    ]
  },
  {
    "Stop ID":170,
    "Abreviation":"ASHBSUR1",
    "Stop Name":"Ashbury at Surrey Cres NB - #170",
    "Lat":42.938413,
    "Long":-81.204312,
    "Routes":[
      "Rt13"
    ]
  },
  {
    "Stop ID":171,
    "Abreviation":"ASHBSUR2",
    "Stop Name":"Ashbury at Surrey Cres SB - #171",
    "Lat":42.938244,
    "Long":-81.2043,
    "Routes":[
      "Rt13"
    ]
  },
  {
    "Stop ID":176,
    "Abreviation":"BARKHURO",
    "Stop Name":"Barker at Huron SB - #176",
    "Lat":43.016179,
    "Long":-81.232,
    "Routes":[
      "Rt10",
      " Rt27"
    ]
  },
  {
    "Stop ID":183,
    "Abreviation":"BASEDELT",
    "Stop Name":"Base Line at Delta Pl SB",
    "Lat":42.9578075,
    "Long":-81.2785173,
    "Routes":[

    ]
  },
  {
    "Stop ID":184,
    "Abreviation":"BASEDUND",
    "Stop Name":"Base Line at Dundee Place EB - #184",
    "Lat":42.959601,
    "Long":-81.25735,
    "Routes":[
      "Rt15"
    ]
  },
  {
    "Stop ID":189,
    "Abreviation":"BASEFAI2",
    "Stop Name":"Base Line west of Fairview Ave WB - #189",
    "Lat":42.962147,
    "Long":-81.226993,
    "Routes":[
      "Rt1",
      " Rt6"
    ]
  },
  {
    "Stop ID":190,
    "Abreviation":"BASEFAI3",
    "Stop Name":"Base Line west of Fairview EB - #190",
    "Lat":42.962039,
    "Long":-81.226664,
    "Routes":[
      "Rt1",
      " Rt6"
    ]
  },
  {
    "Stop ID":192,
    "Abreviation":"BASEHIG1",
    "Stop Name":"Base Line at High EB - #192",
    "Lat":42.961362,
    "Long":-81.235476,
    "Routes":[
      "Rt6"
    ]
  },
  {
    "Stop ID":196,
    "Abreviation":"BASEMGR1",
    "Stop Name":"Base Line at McGregor EB - #196",
    "Lat":42.959013,
    "Long":-81.264059,
    "Routes":[
      "Rt15"
    ]
  },
  {
    "Stop ID":206,
    "Abreviation":"BASEWEL1",
    "Stop Name":"Base Line east of Wellington EB - #206",
    "Lat":42.961772,
    "Long":-81.230042,
    "Routes":[
      "Rt1"
    ]
  },
  {
    "Stop ID":208,
    "Abreviation":"BASEWEL3",
    "Stop Name":"Base Line west of Wellington EB - #208",
    "Lat":42.961636,
    "Long":-81.231553,
    "Routes":[
      "Rt6"
    ]
  },
  {
    "Stop ID":210,
    "Abreviation":"BASEWEL6",
    "Stop Name":"Base Line west of Wellington WB - #210",
    "Lat":42.961786,
    "Long":-81.231501,
    "Routes":[
      "Rt6"
    ]
  },
  {
    "Stop ID":211,
    "Abreviation":"BASEWES1",
    "Stop Name":"Base Line east of West St  EB - #211",
    "Lat":42.958703,
    "Long":-81.267666,
    "Routes":[
      "Rt15"
    ]
  },
  {
    "Stop ID":212,
    "Abreviation":"BASEWES2",
    "Stop Name":"30 Base Line WB - #212",
    "Lat":42.959042,
    "Long":-81.264016,
    "Routes":[
      "Rt15"
    ]
  },
  {
    "Stop ID":213,
    "Abreviation":"BASEWES3",
    "Stop Name":"Base Line west of West St  EB - #213",
    "Lat":42.958329,
    "Long":-81.271553,
    "Routes":[
      "Rt15"
    ]
  },
  {
    "Stop ID":214,
    "Abreviation":"BASEWES4",
    "Stop Name":"90 Base Line WB - #214",
    "Lat":42.958764,
    "Long":-81.267069,
    "Routes":[
      "Rt15"
    ]
  },
  {
    "Stop ID":216,
    "Abreviation":"BASEWHA2",
    "Stop Name":"Base Line at Wharncliffe WB - #216",
    "Lat":42.959398,
    "Long":-81.260128,
    "Routes":[
      "Rt15"
    ]
  },
  {
    "Stop ID":222,
    "Abreviation":"BEACBAS1",
    "Stop Name":"Beachwood at Base Line NB - #222",
    "Lat":42.957793,
    "Long":-81.275356,
    "Routes":[
      "Rt15"
    ]
  },
  {
    "Stop ID":223,
    "Abreviation":"BEACBAS2",
    "Stop Name":"Beachwood at Base Line SB - #223",
    "Lat":42.957706,
    "Long":-81.275411,
    "Routes":[
      "Rt15"
    ]
  },
  {
    "Stop ID":224,
    "Abreviation":"BEAVBLYT",
    "Stop Name":"Beaverbrook at Blythwood WB - #224",
    "Lat":42.989057,
    "Long":-81.298029,
    "Routes":[
      "Rt20",
      " Rt27"
    ]
  },
  {
    "Stop ID":225,
    "Abreviation":"BEAVHORI",
    "Stop Name":"Beaverbrook at Horizon WB - #225",
    "Lat":42.990733,
    "Long":-81.292312,
    "Routes":[
      "Rt20"
    ]
  },
  {
    "Stop ID":226,
    "Abreviation":"BEAVOXF1",
    "Stop Name":"Beaverbrook at Oxford NB - #226",
    "Lat":42.987086,
    "Long":-81.281034,
    "Routes":[
      "Rt20",
      " Rt33"
    ]
  },
  {
    "Stop ID":227,
    "Abreviation":"BEAVOXF2",
    "Stop Name":"Beaverbrook at Oxford SB - #227",
    "Lat":42.986911,
    "Long":-81.281009,
    "Routes":[
      "Rt20",
      " Rt33"
    ]
  },
  {
    "Stop ID":228,
    "Abreviation":"BEAVWOND",
    "Stop Name":"Beaverbrook at Wonderland WB - #228",
    "Lat":42.990017,
    "Long":-81.294785,
    "Routes":[
      "Rt20"
    ]
  },
  {
    "Stop ID":229,
    "Abreviation":"BECKLANC",
    "Stop Name":"Beckworth at Lancaster EB - #229",
    "Lat":43.02153,
    "Long":-81.199744,
    "Routes":[
      "Rt15"
    ]
  },
  {
    "Stop ID":230,
    "Abreviation":"BECKLANG",
    "Stop Name":"Beckworth at Langton EB - #230",
    "Lat":43.022025,
    "Long":-81.197964,
    "Routes":[
      "Rt15"
    ]
  },
  {
    "Stop ID":231,
    "Abreviation":"BECKSORR",
    "Stop Name":"Beckworth at Sorrel EB - #231",
    "Lat":43.021237,
    "Long":-81.193988,
    "Routes":[
      "Rt15"
    ]
  },
  {
    "Stop ID":232,
    "Abreviation":"BECKTOUK",
    "Stop Name":"Beckworth at Toukay EB - #232",
    "Lat":43.02084,
    "Long":-81.202245,
    "Routes":[
      "Rt15"
    ]
  },
  {
    "Stop ID":233,
    "Abreviation":"BECKTUDO",
    "Stop Name":"Beckworth at Tudor EB - #233",
    "Lat":43.02187,
    "Long":-81.196218,
    "Routes":[
      "Rt15"
    ]
  },
  {
    "Stop ID":234,
    "Abreviation":"BELMHILL",
    "Stop Name":"Belmont at Hillsborough EB - #234",
    "Lat":42.947155,
    "Long":-81.261834,
    "Routes":[
      "Rt12"
    ]
  },
  {
    "Stop ID":235,
    "Abreviation":"BELMNODA",
    "Stop Name":"Belmont at Notre Dame EB - #235",
    "Lat":42.946298,
    "Long":-81.26779,
    "Routes":[
      "Rt12"
    ]
  },
  {
    "Stop ID":236,
    "Abreviation":"BELMSLAW",
    "Stop Name":"Belmont at St Lawrence EB - #236",
    "Lat":42.946828,
    "Long":-81.264574,
    "Routes":[
      "Rt12"
    ]
  },
  {
    "Stop ID":237,
    "Abreviation":"BELMWHAR",
    "Stop Name":"Belmont at Wharncliffe EB - #237",
    "Lat":42.947323,
    "Long":-81.259069,
    "Routes":[
      "Rt12"
    ]
  },
  {
    "Stop ID":240,
    "Abreviation":"BERKGAR1",
    "Stop Name":"Berkshire at Gardenwood NB - #240",
    "Lat":42.962686,
    "Long":-81.285332,
    "Routes":[
      "Rt5"
    ]
  },
  {
    "Stop ID":241,
    "Abreviation":"BERKGAR4",
    "Stop Name":"Berkshire north of Gardenwood SB - #241",
    "Lat":42.962481,
    "Long":-81.286307,
    "Routes":[
      "Rt5"
    ]
  },
  {
    "Stop ID":242,
    "Abreviation":"BERKROB1",
    "Stop Name":"Berkshire at Robin NB - #242",
    "Lat":42.960797,
    "Long":-81.282859,
    "Routes":[
      "Rt7"
    ]
  },
  {
    "Stop ID":243,
    "Abreviation":"BERKROB2",
    "Stop Name":"Berkshire at Robin SB - #243",
    "Lat":42.961183,
    "Long":-81.283003,
    "Routes":[
      "Rt7"
    ]
  },
  {
    "Stop ID":244,
    "Abreviation":"BERKSPR1",
    "Stop Name":"Berkshire at Springbank NB - #244",
    "Lat":42.964044,
    "Long":-81.290657,
    "Routes":[
      "Rt5"
    ]
  },
  {
    "Stop ID":245,
    "Abreviation":"BERKSPR2",
    "Stop Name":"Berkshire at Springbank SB - #245",
    "Lat":42.963902,
    "Long":-81.290635,
    "Routes":[
      "Rt5"
    ]
  },
  {
    "Stop ID":246,
    "Abreviation":"BERKTOP1",
    "Stop Name":"Berkshire at Topping Lane NB - #246",
    "Lat":42.959633,
    "Long":-81.283813,
    "Routes":[
      "Rt7"
    ]
  },
  {
    "Stop ID":247,
    "Abreviation":"BERKTOP2",
    "Stop Name":"Berkshire at Topping Lane SB - #247",
    "Lat":42.959659,
    "Long":-81.283837,
    "Routes":[
      "Rt7"
    ]
  },
  {
    "Stop ID":250,
    "Abreviation":"BES1EXET",
    "Stop Name":"Bessemer at Exeter NB - #250",
    "Lat":42.927041,
    "Long":-81.212835,
    "Routes":[
      "Rt30"
    ]
  },
  {
    "Stop ID":252,
    "Abreviation":"BESSBES3",
    "Stop Name":"Bessemer at Bessemer Crt 2 NB - #252",
    "Lat":42.932033,
    "Long":-81.211985,
    "Routes":[
      "Rt30"
    ]
  },
  {
    "Stop ID":253,
    "Abreviation":"BESSHAR1",
    "Stop Name":"Bessemer at Hargrieve NB - #253",
    "Lat":42.929243,
    "Long":-81.212852,
    "Routes":[
      "Rt30"
    ]
  },
  {
    "Stop ID":255,
    "Abreviation":"BKWTADE1",
    "Stop Name":"Blackwater east of Adelaide EB - #255",
    "Lat":43.043968,
    "Long":-81.258899,
    "Routes":[
      "Rt19"
    ]
  },
  {
    "Stop ID":262,
    "Abreviation":"BLACEDG2",
    "Stop Name":"Blackacres at Edgehill Cres 1 WB - #262",
    "Lat":43.0109,
    "Long":-81.31129,
    "Routes":[
      "Rt9"
    ]
  },
  {
    "Stop ID":263,
    "Abreviation":"BLACEDG4",
    "Stop Name":"Blackacres at Edgehill Cres WB - #263",
    "Lat":43.012802,
    "Long":-81.315024,
    "Routes":[
      "Rt9"
    ]
  },
  {
    "Stop ID":265,
    "Abreviation":"BLACHOM2",
    "Stop Name":"Blackacres at Hawthorne NB - #265",
    "Lat":43.009442,
    "Long":-81.310468,
    "Routes":[
      "Rt9"
    ]
  },
  {
    "Stop ID":267,
    "Abreviation":"BLACWOND",
    "Stop Name":"Blackacres at Wonderland WB - #267",
    "Lat":43.009924,
    "Long":-81.306375,
    "Routes":[
      "Rt9"
    ]
  },
  {
    "Stop ID":269,
    "Abreviation":"BLACWWA2",
    "Stop Name":"Blackacres at Winding Way WB - #269",
    "Lat":43.012349,
    "Long":-81.319429,
    "Routes":[
      "Rt9"
    ]
  },
  {
    "Stop ID":274,
    "Abreviation":"BLUESUN2",
    "Stop Name":"Bluebell  at Sunningdale SB - #274",
    "Lat":43.042123,
    "Long":-81.272748,
    "Routes":[
      "Rt19"
    ]
  },
  {
    "Stop ID":275,
    "Abreviation":"BOLEBASE",
    "Stop Name":"Boler at Byron Baseline NB - #275",
    "Lat":42.953654,
    "Long":-81.331251,
    "Routes":[
      "Rt5",
      " Rt17"
    ]
  },
  {
    "Stop ID":276,
    "Abreviation":"BOLECOM1",
    "Stop Name":"Boler south of Commissioners NB - #276",
    "Lat":42.958331,
    "Long":-81.332375,
    "Routes":[
      "Rt5",
      " Rt17"
    ]
  },
  {
    "Stop ID":277,
    "Abreviation":"BOLECOM3",
    "Stop Name":"Boler north of Commissioners NB - #277",
    "Lat":42.960072,
    "Long":-81.332683,
    "Routes":[
      "Rt17"
    ]
  },
  {
    "Stop ID":278,
    "Abreviation":"BOLEGLEN",
    "Stop Name":"Boler at Glenrose NB - #278",
    "Lat":42.956735,
    "Long":-81.332025,
    "Routes":[
      "Rt5",
      " Rt17"
    ]
  },
  {
    "Stop ID":279,
    "Abreviation":"BOLEGRIF",
    "Stop Name":"Boler at Griffith NB - #279",
    "Lat":42.945802,
    "Long":-81.329332,
    "Routes":[
      "Rt5"
    ]
  },
  {
    "Stop ID":280,
    "Abreviation":"BOLEWAYN",
    "Stop Name":"Boler at Wayne Road NB - #280",
    "Lat":42.949368,
    "Long":-81.330188,
    "Routes":[
      "Rt5"
    ]
  },
  {
    "Stop ID":281,
    "Abreviation":"BONADUND",
    "Stop Name":"Bonaventure at Dundas SB - #281",
    "Lat":43.008767,
    "Long":-81.158322,
    "Routes":[
      "Rt2"
    ]
  },
  {
    "Stop ID":283,
    "Abreviation":"BONAMORE",
    "Stop Name":"Bonaventure at Moreau Cr  SB - #283",
    "Lat":43.004695,
    "Long":-81.154708,
    "Routes":[
      "Rt2"
    ]
  },
  {
    "Stop ID":284,
    "Abreviation":"BONANAPO",
    "Stop Name":"Bonaventure at Napoleon Cr SB - #284",
    "Lat":43.000429,
    "Long":-81.154082,
    "Routes":[
      "Rt35"
    ]
  },
  {
    "Stop ID":285,
    "Abreviation":"BONASIMP",
    "Stop Name":"Bonaventure at Simpson Cr SB - #285",
    "Lat":43.007415,
    "Long":-81.156086,
    "Routes":[
      "Rt2"
    ]
  },
  {
    "Stop ID":287,
    "Abreviation":"BONATRA2",
    "Stop Name":"Bonaventure at Trafalgar SB - #287",
    "Lat":42.997744,
    "Long":-81.153783,
    "Routes":[
      "Rt35"
    ]
  },
  {
    "Stop ID":290,
    "Abreviation":"BOWBANC",
    "Stop Name":"Bow at Bancroft EB - #290",
    "Lat":42.991759,
    "Long":-81.16023,
    "Routes":[
      "Rt2"
    ]
  },
  {
    "Stop ID":291,
    "Abreviation":"BRADADE1",
    "Stop Name":"Bradley between Willow & Adelaide  EB - #291",
    "Lat":42.935783,
    "Long":-81.213495,
    "Routes":[
      "Rt10"
    ]
  },
  {
    "Stop ID":292,
    "Abreviation":"BRADADE2",
    "Stop Name":"Bradley at Adelaide  WB - #292",
    "Lat":42.935976,
    "Long":-81.209553,
    "Routes":[
      "Rt10",
      " Rt95"
    ]
  },
  {
    "Stop ID":293,
    "Abreviation":"BRADAGN2",
    "Stop Name":"Bradley at Willow 1 WB - #293",
    "Lat":42.935252,
    "Long":-81.216461,
    "Routes":[
      "Rt10"
    ]
  },
  {
    "Stop ID":294,
    "Abreviation":"BRADDEAR",
    "Stop Name":"Bradley at Dearness WB - #294",
    "Lat":42.93475,
    "Long":-81.221688,
    "Routes":[
      "Rt10",
      " Rt13",
      " Rt95"
    ]
  },
  {
    "Stop ID":295,
    "Abreviation":"BRADERNE",
    "Stop Name":"Bradley at Ernest Ave EB - #295",
    "Lat":42.93429,
    "Long":-81.237428,
    "Routes":[
      "Rt28",
      " Rt93"
    ]
  },
  {
    "Stop ID":296,
    "Abreviation":"BRADJALN",
    "Stop Name":"Bradley at Jalna EB - #296",
    "Lat":42.934325,
    "Long":-81.240431,
    "Routes":[
      "Rt28",
      " Rt93"
    ]
  },
  {
    "Stop ID":297,
    "Abreviation":"BRADWEL3",
    "Stop Name":"Bradley east of Wellington Rd EB - #297",
    "Lat":42.934543,
    "Long":-81.222187,
    "Routes":[
      "Rt10",
      " Rt13",
      " Rt95"
    ]
  },
  {
    "Stop ID":298,
    "Abreviation":"BRADWIL1",
    "Stop Name":"Bradley at Willow 1 EB - #298",
    "Lat":42.934873,
    "Long":-81.218812,
    "Routes":[
      "Rt10"
    ]
  },
  {
    "Stop ID":300,
    "Abreviation":"BRIAHURO",
    "Stop Name":"Briarhill at Huron SB - #300",
    "Lat":43.016976,
    "Long":-81.226235,
    "Routes":[
      "Rt1"
    ]
  },
  {
    "Stop ID":302,
    "Abreviation":"BRIAMEL2",
    "Stop Name":"Briarhill north of Melsandra SB - #302",
    "Lat":43.02038,
    "Long":-81.227859,
    "Routes":[
      "Rt1"
    ]
  },
  {
    "Stop ID":303,
    "Abreviation":"BRUCMARL",
    "Stop Name":"Bruce at Marley Place EB - #303",
    "Lat":42.972934,
    "Long":-81.251357,
    "Routes":[
      "Rt15"
    ]
  },
  {
    "Stop ID":304,
    "Abreviation":"BRUCWORT",
    "Stop Name":"Bruce at Wortley EB - #304",
    "Lat":42.972448,
    "Long":-81.253366,
    "Routes":[
      "Rt15"
    ]
  },
  {
    "Stop ID":305,
    "Abreviation":"BRYDHAL1",
    "Stop Name":"Brydges at Hale EB - #305",
    "Lat":42.990508,
    "Long":-81.195478,
    "Routes":[
      "Rt7"
    ]
  },
  {
    "Stop ID":306,
    "Abreviation":"BRYDHAL2",
    "Stop Name":"Brydges at Hale WB - #306",
    "Lat":42.990779,
    "Long":-81.194754,
    "Routes":[
      "Rt7"
    ]
  },
  {
    "Stop ID":308,
    "Abreviation":"BRYDHIG2",
    "Stop Name":"Brydges at Highbury WB - #308",
    "Lat":42.989103,
    "Long":-81.199763,
    "Routes":[
      "Rt7"
    ]
  },
  {
    "Stop ID":309,
    "Abreviation":"BRYDHIG3",
    "Stop Name":"Brydges at Highbury  EB - #309",
    "Lat":42.989035,
    "Long":-81.19957,
    "Routes":[
      "Rt7"
    ]
  },
  {
    "Stop ID":312,
    "Abreviation":"BURLCAIR",
    "Stop Name":"Burlington at Cairn EB - #312",
    "Lat":42.963624,
    "Long":-81.203471,
    "Routes":[
      "Rt1"
    ]
  },
  {
    "Stop ID":313,
    "Abreviation":"BURLPOMI",
    "Stop Name":"Burlington at Pond Mills EB - #313",
    "Lat":42.963336,
    "Long":-81.201285,
    "Routes":[
      "Rt1"
    ]
  },
  {
    "Stop ID":314,
    "Abreviation":"BYBABELV",
    "Stop Name":"Byron Baseline at Belvedere EB - #314",
    "Lat":42.952538,
    "Long":-81.33747,
    "Routes":[
      "Rt17"
    ]
  },
  {
    "Stop ID":316,
    "Abreviation":"BYBABYRO",
    "Stop Name":"Byron Baseline at Byron Blvd EB - #316",
    "Lat":42.952929,
    "Long":-81.333022,
    "Routes":[
      "Rt17"
    ]
  },
  {
    "Stop ID":318,
    "Abreviation":"BYBAGRIF",
    "Stop Name":"Byron Baseline at Griffith EB - #318",
    "Lat":42.9523151,
    "Long":-81.3397781,
    "Routes":[
      "Rt17"
    ]
  },
  {
    "Stop ID":321,
    "Abreviation":"CAPUBLSM",
    "Stop Name":"Capulet Lane at Blacksmith SB - #321",
    "Lat":42.987537,
    "Long":-81.299896,
    "Routes":[
      "Rt27"
    ]
  },
  {
    "Stop ID":322,
    "Abreviation":"CAPUCAPW",
    "Stop Name":"Capulet Lane at Capulet Walk SB - #322",
    "Lat":42.985177,
    "Long":-81.298375,
    "Routes":[
      "Rt27"
    ]
  },
  {
    "Stop ID":323,
    "Abreviation":"CARFCAR1",
    "Stop Name":"Carfrae at Carfrae NB - #323",
    "Lat":42.974211,
    "Long":-81.245171,
    "Routes":[
      "Rt6",
      " Rt104"
    ]
  },
  {
    "Stop ID":324,
    "Abreviation":"CARFCAR2",
    "Stop Name":"Carfrae & Carfrae St SB - #324",
    "Lat":42.974234,
    "Long":-81.245255,
    "Routes":[
      "Rt6"
    ]
  },
  {
    "Stop ID":325,
    "Abreviation":"CARFGRAN",
    "Stop Name":"Carfrae at Grand NB - #325",
    "Lat":42.971887,
    "Long":-81.244635,
    "Routes":[
      "Rt6",
      " Rt104"
    ]
  },
  {
    "Stop ID":326,
    "Abreviation":"CARFWOOD",
    "Stop Name":"Carfrae at Woodland Pl SB - #326",
    "Lat":42.972115,
    "Long":-81.244794,
    "Routes":[
      "Rt6"
    ]
  },
  {
    "Stop ID":327,
    "Abreviation":"CARLCAPR",
    "Stop Name":"Carlyle at Caprice Cres NB - #327",
    "Lat":43.003383,
    "Long":-81.1596,
    "Routes":[
      "Rt2"
    ]
  },
  {
    "Stop ID":328,
    "Abreviation":"CARLSPE1",
    "Stop Name":"Carlyle at Speight Cres North NB - #328",
    "Lat":43.006153,
    "Long":-81.161129,
    "Routes":[
      "Rt2"
    ]
  },
  {
    "Stop ID":329,
    "Abreviation":"CARLSPE3",
    "Stop Name":"Carlyle at Speight Cres South NB - #329",
    "Lat":43.005159,
    "Long":-81.16109,
    "Routes":[
      "Rt2"
    ]
  },
  {
    "Stop ID":330,
    "Abreviation":"CARLTIFF",
    "Stop Name":"Carlyle at Tiffany  NB - #330",
    "Lat":43.007857,
    "Long":-81.161588,
    "Routes":[
      "Rt2"
    ]
  },
  {
    "Stop ID":331,
    "Abreviation":"CATHBASE",
    "Stop Name":"Cathcart at Baseline NB - #331",
    "Lat":42.960272,
    "Long":-81.253127,
    "Routes":[
      "Rt15"
    ]
  },
  {
    "Stop ID":334,
    "Abreviation":"CATHDEVO",
    "Stop Name":"Cathcart at Devonshire NB - #334",
    "Lat":42.963072,
    "Long":-81.253339,
    "Routes":[
      "Rt15"
    ]
  },
  {
    "Stop ID":336,
    "Abreviation":"CATHELMW",
    "Stop Name":"Cathcart at Elmwood NB - #336",
    "Lat":42.970601,
    "Long":-81.254468,
    "Routes":[
      "Rt15"
    ]
  },
  {
    "Stop ID":339,
    "Abreviation":"CATHLANG",
    "Stop Name":"Cathcart at Langarth NB - #339",
    "Lat":42.965372,
    "Long":-81.253657,
    "Routes":[
      "Rt15"
    ]
  },
  {
    "Stop ID":340,
    "Abreviation":"CATHTECU",
    "Stop Name":"Cathcart at Tecumseh NB - #340",
    "Lat":42.967892,
    "Long":-81.254039,
    "Routes":[
      "Rt15"
    ]
  },
  {
    "Stop ID":341,
    "Abreviation":"CHAMSAND",
    "Stop Name":"Chambers at Sandybrook NB - #341",
    "Lat":43.039748,
    "Long":-81.270162,
    "Routes":[
      "Rt19"
    ]
  },
  {
    "Stop ID":342,
    "Abreviation":"CHAMSKYL",
    "Stop Name":"Chambers at Skyline NB - #342",
    "Lat":43.041719,
    "Long":-81.271282,
    "Routes":[
      "Rt19"
    ]
  },
  {
    "Stop ID":343,
    "Abreviation":"CHAMWHIS",
    "Stop Name":"Chambers at Whisker SB - #343",
    "Lat":43.038329,
    "Long":-81.270524,
    "Routes":[
      "Rt19"
    ]
  },
  {
    "Stop ID":344,
    "Abreviation":"CHEAADE1",
    "Stop Name":"Cheapside at Adelaide EB - #344",
    "Lat":43.006237,
    "Long":-81.239049,
    "Routes":[
      "Rt15"
    ]
  },
  {
    "Stop ID":345,
    "Abreviation":"CHEAADE2",
    "Stop Name":"Cheapside west of Adelaide WB - #345",
    "Lat":43.006102,
    "Long":-81.240697,
    "Routes":[
      "Rt1",
      " Rt15"
    ]
  },
  {
    "Stop ID":346,
    "Abreviation":"CHEAADE4",
    "Stop Name":"Cheapside east of Adelaide WB - #346",
    "Lat":43.006567,
    "Long":-81.23826,
    "Routes":[
      "Rt15"
    ]
  },
  {
    "Stop ID":348,
    "Abreviation":"CHEABARK",
    "Stop Name":"Cheapside at Barker EB - #348",
    "Lat":43.009427,
    "Long":-81.22825,
    "Routes":[
      "Rt15"
    ]
  },
  {
    "Stop ID":349,
    "Abreviation":"CHEABOU1",
    "Stop Name":"Cheapside at Boullee EB - #349",
    "Lat":43.010127,
    "Long":-81.225877,
    "Routes":[
      "Rt15"
    ]
  },
  {
    "Stop ID":350,
    "Abreviation":"CHEABOU2",
    "Stop Name":"Cheapside at Boullee WB - #350",
    "Lat":43.010344,
    "Long":-81.225389,
    "Routes":[
      "Rt15"
    ]
  },
  {
    "Stop ID":351,
    "Abreviation":"CHEABRA1",
    "Stop Name":"Cheapside at Brampton EB - #351",
    "Lat":43.007764,
    "Long":-81.233993,
    "Routes":[
      "Rt15"
    ]
  },
  {
    "Stop ID":353,
    "Abreviation":"CHEACOL2",
    "Stop Name":"Cheapside at Colborne WB - #353",
    "Lat":43.003974,
    "Long":-81.248369,
    "Routes":[
      "Rt15"
    ]
  },
  {
    "Stop ID":354,
    "Abreviation":"CHEAGAM1",
    "Stop Name":"Cheapside at Gammage EB - #354",
    "Lat":43.008605,
    "Long":-81.231088,
    "Routes":[
      "Rt15"
    ]
  },
  {
    "Stop ID":355,
    "Abreviation":"CHEAGAM2",
    "Stop Name":"Cheapside at Gammage WB - #355",
    "Lat":43.008478,
    "Long":-81.23179,
    "Routes":[
      "Rt15"
    ]
  },
  {
    "Stop ID":357,
    "Abreviation":"CHEAMAI1",
    "Stop Name":"Cheapside at Maitland EB - #357",
    "Lat":43.004728,
    "Long":-81.24527,
    "Routes":[
      "Rt1",
      " Rt15"
    ]
  },
  {
    "Stop ID":358,
    "Abreviation":"CHEAMAI2",
    "Stop Name":"Cheapside at Maitland WB - #358",
    "Lat":43.004599,
    "Long":-81.246139,
    "Routes":[
      "Rt1",
      " Rt15"
    ]
  },
  {
    "Stop ID":359,
    "Abreviation":"CHEAMCNA",
    "Stop Name":"Cheapside at McNay EB - #359",
    "Lat":43.011324,
    "Long":-81.221707,
    "Routes":[
      "Rt15"
    ]
  },
  {
    "Stop ID":360,
    "Abreviation":"CHEARICH",
    "Stop Name":"Cheapside at Richmond WB - #360",
    "Lat":43.001983,
    "Long":-81.255573,
    "Routes":[
      "Rt15"
    ]
  },
  {
    "Stop ID":361,
    "Abreviation":"CHEASTER",
    "Stop Name":"Cheapside at Sterling WB - #361",
    "Lat":43.009301,
    "Long":-81.228968,
    "Routes":[
      "Rt15"
    ]
  },
  {
    "Stop ID":364,
    "Abreviation":"CHEAWAT1",
    "Stop Name":"Cheapside at Waterloo EB - #364",
    "Lat":43.002959,
    "Long":-81.251627,
    "Routes":[
      "Rt15"
    ]
  },
  {
    "Stop ID":365,
    "Abreviation":"CHEAWAT2",
    "Stop Name":"Cheapside at Waterloo WB - #365",
    "Lat":43.003196,
    "Long":-81.251129,
    "Routes":[
      "Rt15"
    ]
  },
  {
    "Stop ID":368,
    "Abreviation":"CHEAWIL1",
    "Stop Name":"Cheapside at William EB - #368",
    "Lat":43.005516,
    "Long":-81.24244,
    "Routes":[
      "Rt1",
      " Rt15"
    ]
  },
  {
    "Stop ID":369,
    "Abreviation":"CHEAWIL2",
    "Stop Name":"Cheapside at William WB - #369",
    "Lat":43.005588,
    "Long":-81.242502,
    "Routes":[
      "Rt1",
      " Rt15"
    ]
  },
  {
    "Stop ID":371,
    "Abreviation":"CHERCHBL",
    "Stop Name":"Cherryhill at Cherryhill Blvd WB - #371",
    "Lat":42.99116,
    "Long":-81.277868,
    "Routes":[
      "Rt20",
      " Rt33"
    ]
  },
  {
    "Stop ID":372,
    "Abreviation":"CHERCHC1",
    "Stop Name":"Cherryhill at Cherryhill Blvd NB - #372",
    "Lat":42.990935,
    "Long":-81.277884,
    "Routes":[
      "Rt20",
      " Rt33"
    ]
  },
  {
    "Stop ID":373,
    "Abreviation":"CHERCHC2",
    "Stop Name":"Cherryhill at Cherryhil Circle WB",
    "Lat":42.991687,
    "Long":-81.276465,
    "Routes":[
      "Community Bus (51",
      " 52",
      " 53",
      " 54"
    ]
  },
  {
    "Stop ID":374,
    "Abreviation":"CHERCHC3",
    "Stop Name":"Cherryhill east of Cherryhill Cir EB - #374",
    "Lat":42.99177,
    "Long":-81.275942,
    "Routes":[
      "Rt20",
      " Rt33"
    ]
  },
  {
    "Stop ID":375,
    "Abreviation":"CHERCHC4",
    "Stop Name":"160 Cherryhill Place - #375",
    "Lat":42.991975,
    "Long":-81.275413,
    "Routes":[
      "Rt20",
      " Rt33"
    ]
  },
  {
    "Stop ID":378,
    "Abreviation":"CHEROXF1",
    "Stop Name":"Cherryhill north of Oxford 1 NB - #378",
    "Lat":42.989354,
    "Long":-81.276458,
    "Routes":[
      "Rt20",
      " Rt33"
    ]
  },
  {
    "Stop ID":379,
    "Abreviation":"CHEROXF2",
    "Stop Name":"Cherryhill at Oxford SB - #379",
    "Lat":42.989064,
    "Long":-81.276488,
    "Routes":[
      "Rt20",
      " Rt33"
    ]
  },
  {
    "Stop ID":381,
    "Abreviation":"CHERPLA1",
    "Stop Name":"Cherryhill at Platts Lane EB - #381",
    "Lat":42.99171,
    "Long":-81.273521,
    "Routes":[
      "Rt20",
      " Rt33"
    ]
  },
  {
    "Stop ID":382,
    "Abreviation":"CHERPLA2",
    "Stop Name":"Cherryhill at Platts Lane WB - #382",
    "Lat":42.991829,
    "Long":-81.273316,
    "Routes":[
      "Rt20",
      " Rt33"
    ]
  },
  {
    "Stop ID":384,
    "Abreviation":"CHIDCHID",
    "Stop Name":"Chiddington Ave at Chiddington Gt SB - #384",
    "Lat":42.952254,
    "Long":-81.233581,
    "Routes":[
      "Rt4"
    ]
  },
  {
    "Stop ID":385,
    "Abreviation":"CHIDHUN1",
    "Stop Name":"Chiddington at Huntingdon EB - #385",
    "Lat":42.953491,
    "Long":-81.237051,
    "Routes":[
      "Rt4"
    ]
  },
  {
    "Stop ID":386,
    "Abreviation":"CHIDHUN2",
    "Stop Name":"Chiddington at Huntingdon WB - #386",
    "Lat":42.953562,
    "Long":-81.235669,
    "Routes":[
      "Rt4"
    ]
  },
  {
    "Stop ID":389,
    "Abreviation":"CHIDUPQ2",
    "Stop Name":"Chiddington at Upper Queens WB - #389",
    "Lat":42.953264,
    "Long":-81.239981,
    "Routes":[
      "Rt4"
    ]
  },
  {
    "Stop ID":390,
    "Abreviation":"CHIDWILK",
    "Stop Name":"Chiddington at Wilkins NB - #390",
    "Lat":42.952296,
    "Long":-81.233496,
    "Routes":[
      "Rt4"
    ]
  },
  {
    "Stop ID":391,
    "Abreviation":"CHIPAPP2",
    "Stop Name":"Chippewa Elementary School - #391",
    "Lat":43.028257,
    "Long":-81.197729,
    "Routes":[
      "Rt15"
    ]
  },
  {
    "Stop ID":392,
    "Abreviation":"CHIPAPP4",
    "Stop Name":"Chippewa at Appache WB - #392",
    "Lat":43.026565,
    "Long":-81.202334,
    "Routes":[
      "Rt15"
    ]
  },
  {
    "Stop ID":393,
    "Abreviation":"CHIPTREV",
    "Stop Name":"Chippewa at Trevor WB - #393",
    "Lat":43.02762,
    "Long":-81.199787,
    "Routes":[
      "Rt15"
    ]
  },
  {
    "Stop ID":394,
    "Abreviation":"CLARAVA1",
    "Stop Name":"Clarke at Avalon NB - #394",
    "Lat":43.006881,
    "Long":-81.176782,
    "Routes":[
      "Rt17"
    ]
  },
  {
    "Stop ID":395,
    "Abreviation":"CLARCHA1",
    "Stop Name":"Clarke at Charterhouse NB - #395",
    "Lat":42.99043,
    "Long":-81.168805,
    "Routes":[
      "Rt3",
      " Rt5"
    ]
  },
  {
    "Stop ID":396,
    "Abreviation":"CLARCHA2",
    "Stop Name":"Clarke at Charterhouse SB - #396",
    "Lat":42.988142,
    "Long":-81.167747,
    "Routes":[
      "Rt3",
      " Rt5"
    ]
  },
  {
    "Stop ID":397,
    "Abreviation":"CLARCHA3",
    "Stop Name":"Marconi Club NB - #397",
    "Lat":42.987716,
    "Long":-81.16735,
    "Routes":[
      "Rt3",
      " Rt5"
    ]
  },
  {
    "Stop ID":398,
    "Abreviation":"CLARCHU1",
    "Stop Name":"Clarke at Churchill NB - #398",
    "Lat":43.00102,
    "Long":-81.173848,
    "Routes":[
      "Rt2",
      " Rt3",
      " Rt5",
      " Rt7",
      " Rt35"
    ]
  },
  {
    "Stop ID":399,
    "Abreviation":"CLARCHU2",
    "Stop Name":"Clarke at Churchill  SB - #399",
    "Lat":43.000697,
    "Long":-81.173868,
    "Routes":[
      "Rt2",
      " Rt3",
      " Rt5",
      " Rt7",
      " Rt35"
    ]
  },
  {
    "Stop ID":400,
    "Abreviation":"CLARCULV",
    "Stop Name":"Clarke south of Culver SB - #400",
    "Lat":43.011313,
    "Long":-81.179156,
    "Routes":[
      "Rt17"
    ]
  },
  {
    "Stop ID":402,
    "Abreviation":"CLARDUN1",
    "Stop Name":"Clarke at Dundas NB - #402",
    "Lat":43.005365,
    "Long":-81.176055,
    "Routes":[
      "Rt17"
    ]
  },
  {
    "Stop ID":403,
    "Abreviation":"CLARDUN2",
    "Stop Name":"Clarke at Dundas SB - #403",
    "Lat":43.004938,
    "Long":-81.176017,
    "Routes":[
      "Rt17"
    ]
  },
  {
    "Stop ID":404,
    "Abreviation":"CLARFIS1",
    "Stop Name":"Clarke at Firestone NB - #404",
    "Lat":42.983111,
    "Long":-81.164911,
    "Routes":[
      "Rt3",
      " Rt5"
    ]
  },
  {
    "Stop ID":405,
    "Abreviation":"CLARFIS2",
    "Stop Name":"Clarke at Firestone SB - #405",
    "Lat":42.98371,
    "Long":-81.165357,
    "Routes":[
      "Rt3",
      " Rt5"
    ]
  },
  {
    "Stop ID":406,
    "Abreviation":"CLARGORE",
    "Stop Name":"Clarke at Gore NB - #406",
    "Lat":42.981642,
    "Long":-81.164152,
    "Routes":[
      "Rt3",
      " Rt5",
      " Rt38"
    ]
  },
  {
    "Stop ID":409,
    "Abreviation":"CLARPACI",
    "Stop Name":"Clarke at Pacific NB - #409",
    "Lat":43.011092,
    "Long":-81.178909,
    "Routes":[
      "Rt17"
    ]
  },
  {
    "Stop ID":410,
    "Abreviation":"CLARPKH1",
    "Stop Name":"Clarke at Parkhurst NB - #410",
    "Lat":43.008731,
    "Long":-81.177735,
    "Routes":[
      "Rt17"
    ]
  },
  {
    "Stop ID":411,
    "Abreviation":"CLARPKH2",
    "Stop Name":"Clarke at Parkhurst SB - #411",
    "Lat":43.009135,
    "Long":-81.178086,
    "Routes":[
      "Rt17"
    ]
  },
  {
    "Stop ID":412,
    "Abreviation":"CLARROY1",
    "Stop Name":"Clarke at Royal  NB - #412",
    "Lat":42.996122,
    "Long":-81.171725,
    "Routes":[
      "Rt2",
      " Rt3",
      " Rt5"
    ]
  },
  {
    "Stop ID":413,
    "Abreviation":"CLARROY2",
    "Stop Name":"Clarke at Royal SB - #413",
    "Lat":42.996934,
    "Long":-81.172318,
    "Routes":[
      "Rt2",
      " Rt3",
      " Rt5"
    ]
  },
  {
    "Stop ID":414,
    "Abreviation":"CLARROY3",
    "Stop Name":"Sunrise Baptist Church - #414",
    "Lat":42.997734,
    "Long":-81.172518,
    "Routes":[
      "Rt2",
      " Rt3",
      " Rt5"
    ]
  },
  {
    "Stop ID":416,
    "Abreviation":"CLARSUD2",
    "Stop Name":"Clarke at Sudbury SB - #416",
    "Lat":42.994076,
    "Long":-81.17083,
    "Routes":[
      "Rt2",
      " Rt3"
    ]
  },
  {
    "Stop ID":417,
    "Abreviation":"CLARTRA1",
    "Stop Name":"Clarke north of Trafalgar NB - #417",
    "Lat":42.993016,
    "Long":-81.170087,
    "Routes":[
      "Rt2",
      " Rt3",
      " Rt5",
      " Rt38"
    ]
  },
  {
    "Stop ID":418,
    "Abreviation":"CLARTRA2",
    "Stop Name":"Clarke north of Trafalgar SB - #418",
    "Lat":42.993134,
    "Long":-81.170342,
    "Routes":[
      "Rt3",
      " Rt5",
      " Rt38"
    ]
  },
  {
    "Stop ID":419,
    "Abreviation":"CLARTRA4",
    "Stop Name":"Clarke south of Trafalgar SB - #419",
    "Lat":42.990993,
    "Long":-81.16926,
    "Routes":[
      "Rt3",
      " Rt5"
    ]
  },
  {
    "Stop ID":420,
    "Abreviation":"CLARWAV1",
    "Stop Name":"Clarke Road Secondary School - #420",
    "Lat":42.999051,
    "Long":-81.172879,
    "Routes":[
      "Rt2",
      " Rt3",
      " Rt5",
      " Rt7",
      " Rt35"
    ]
  },
  {
    "Stop ID":421,
    "Abreviation":"CLARWAV2",
    "Stop Name":"Clarke at Wavell SB - #421",
    "Lat":42.998256,
    "Long":-81.172885,
    "Routes":[
      "Rt2",
      " Rt3",
      " Rt5"
    ]
  },
  {
    "Stop ID":432,
    "Abreviation":"COLBCEN1",
    "Stop Name":"Colborne at Central NB - #432",
    "Lat":42.992777,
    "Long":-81.242853,
    "Routes":[
      "Rt1"
    ]
  },
  {
    "Stop ID":433,
    "Abreviation":"COLBCEN2",
    "Stop Name":"Colborne at Central SB - #433",
    "Lat":42.992253,
    "Long":-81.242789,
    "Routes":[
      "Rt1"
    ]
  },
  {
    "Stop ID":434,
    "Abreviation":"COLBDUFF",
    "Stop Name":"Colborne at Dufferin SB - #434",
    "Lat":42.989251,
    "Long":-81.241198,
    "Routes":[
      "Rt1"
    ]
  },
  {
    "Stop ID":438,
    "Abreviation":"COLBOXFD",
    "Stop Name":"Colborne at Oxford SB - #438",
    "Lat":42.99796,
    "Long":-81.24567,
    "Routes":[
      "Rt1"
    ]
  },
  {
    "Stop ID":439,
    "Abreviation":"COLBPAM1",
    "Stop Name":"Colborne at Pall Mall NB - #439",
    "Lat":42.994937,
    "Long":-81.243983,
    "Routes":[
      "Rt1"
    ]
  },
  {
    "Stop ID":440,
    "Abreviation":"COLBPAM2",
    "Stop Name":"Colborne at Pall Mall SB - #440",
    "Lat":42.994842,
    "Long":-81.244053,
    "Routes":[
      "Rt1"
    ]
  },
  {
    "Stop ID":443,
    "Abreviation":"COLBPRIN",
    "Stop Name":"Colborne at Princess NB - #443",
    "Lat":42.990303,
    "Long":-81.241638,
    "Routes":[
      "Rt1"
    ]
  },
  {
    "Stop ID":445,
    "Abreviation":"COMMADE1",
    "Stop Name":"Commissioners at Adelaide EB - #445",
    "Lat":42.959153,
    "Long":-81.2149,
    "Routes":[
      "Rt16",
      " Rt24"
    ]
  },
  {
    "Stop ID":446,
    "Abreviation":"COMMADE2",
    "Stop Name":"Commissioners east of Adelaide WB - #446",
    "Lat":42.959517,
    "Long":-81.214417,
    "Routes":[
      "Rt16",
      " Rt24"
    ]
  },
  {
    "Stop ID":447,
    "Abreviation":"COMMADE4",
    "Stop Name":"Commissioners west of Adelaide WB - #447",
    "Lat":42.958643,
    "Long":-81.220485,
    "Routes":[
      "Rt24"
    ]
  },
  {
    "Stop ID":448,
    "Abreviation":"COMMBOL2",
    "Stop Name":"Commissioners at Boler WB - #448",
    "Lat":42.959479,
    "Long":-81.331786,
    "Routes":[
      "Rt5"
    ]
  },
  {
    "Stop ID":449,
    "Abreviation":"COMMDEV1",
    "Stop Name":"Commissioners at Deveron EB - #449",
    "Lat":42.962324,
    "Long":-81.194459,
    "Routes":[
      "Rt10",
      " Rt24"
    ]
  },
  {
    "Stop ID":450,
    "Abreviation":"COMMDEV2",
    "Stop Name":"Commissioners west of Deveron 1 WB - #450",
    "Lat":42.962337,
    "Long":-81.195987,
    "Routes":[
      "Rt10",
      " Rt24"
    ]
  },
  {
    "Stop ID":452,
    "Abreviation":"COMMDEV4",
    "Stop Name":"Commissioners west of Deveron 2 WB - #452",
    "Lat":42.962191,
    "Long":-81.1969,
    "Routes":[
      "Rt1",
      " Rt16"
    ]
  },
  {
    "Stop ID":453,
    "Abreviation":"COMMDEV6",
    "Stop Name":"Commissioners east of Deveron WB - #453",
    "Lat":42.962645,
    "Long":-81.193643,
    "Routes":[
      "Rt10",
      " Rt24"
    ]
  },
  {
    "Stop ID":454,
    "Abreviation":"COMMFRO1",
    "Stop Name":"Commissioners at Frontenac EB - #454",
    "Lat":42.960312,
    "Long":-81.20809,
    "Routes":[
      "Rt16",
      " Rt24"
    ]
  },
  {
    "Stop ID":455,
    "Abreviation":"COMMFRO2",
    "Stop Name":"Commissioners at Frontenac WB - #455",
    "Lat":42.960331,
    "Long":-81.209188,
    "Routes":[
      "Rt16",
      " Rt24"
    ]
  },
  {
    "Stop ID":456,
    "Abreviation":"COMMGRD1",
    "Stop Name":"Commissioners at Gordon EB - #456",
    "Lat":42.956583,
    "Long":-81.264504,
    "Routes":[
      "Rt12",
      " Rt24"
    ]
  },
  {
    "Stop ID":457,
    "Abreviation":"COMMGRD2",
    "Stop Name":"Commissioners at Gordon WB - #457",
    "Lat":42.956814,
    "Long":-81.263811,
    "Routes":[
      "Rt12",
      " Rt24"
    ]
  },
  {
    "Stop ID":458,
    "Abreviation":"COMMHAM2",
    "Stop Name":"Commissioners east of Halls Mills WB - #458",
    "Lat":42.960372,
    "Long":-81.334565,
    "Routes":[
      "Rt5"
    ]
  },
  {
    "Stop ID":461,
    "Abreviation":"COMMHUXL",
    "Stop Name":"Commissioners at Huxley WB - #461",
    "Lat":42.95665,
    "Long":-81.267432,
    "Routes":[
      "Rt12",
      " Rt24"
    ]
  },
  {
    "Stop ID":462,
    "Abreviation":"COMMKIE1",
    "Stop Name":"Commissioners at King Edward EB - #462",
    "Lat":42.960762,
    "Long":-81.205452,
    "Routes":[
      "Rt16",
      " Rt24"
    ]
  },
  {
    "Stop ID":463,
    "Abreviation":"COMMKIE2",
    "Stop Name":"Commissioners at King Edward WB - #463",
    "Lat":42.960842,
    "Long":-81.205928,
    "Routes":[
      "Rt1",
      " Rt16",
      " Rt24"
    ]
  },
  {
    "Stop ID":464,
    "Abreviation":"COMMLEA1",
    "Stop Name":"Commissioners at Leathorne EB - #464",
    "Lat":42.959597,
    "Long":-81.212585,
    "Routes":[
      "Rt16",
      " Rt24"
    ]
  },
  {
    "Stop ID":465,
    "Abreviation":"COMMLEA2",
    "Stop Name":"Commissioners at Leathorne WB - #465",
    "Lat":42.95983,
    "Long":-81.212451,
    "Routes":[
      "Rt16",
      " Rt24"
    ]
  },
  {
    "Stop ID":468,
    "Abreviation":"COMMLYN4",
    "Stop Name":"Opposite St George's Parish - #468",
    "Lat":42.958091,
    "Long":-81.326569,
    "Routes":[
      "Rt5"
    ]
  },
  {
    "Stop ID":470,
    "Abreviation":"COMMNASH",
    "Stop Name":"Commissioners at Nashua EB - #470",
    "Lat":42.95727,
    "Long":-81.324072,
    "Routes":[
      "Rt5"
    ]
  },
  {
    "Stop ID":471,
    "Abreviation":"COMMNOR1",
    "Stop Name":"Commissioners at North EB - #471",
    "Lat":42.956376,
    "Long":-81.321049,
    "Routes":[
      "Rt5"
    ]
  },
  {
    "Stop ID":472,
    "Abreviation":"COMMNOR2",
    "Stop Name":"Commissioners at North WB - #472",
    "Lat":42.95665,
    "Long":-81.32147,
    "Routes":[
      "Rt5"
    ]
  },
  {
    "Stop ID":473,
    "Abreviation":"COMMNOT1",
    "Stop Name":"Commissioners west of Nottinghill EB - #473",
    "Lat":42.952527,
    "Long":-81.299502,
    "Routes":[
      "Rt15"
    ]
  },
  {
    "Stop ID":474,
    "Abreviation":"COMMNOT3",
    "Stop Name":"Commissioners east of Nottinghill EB - #474",
    "Lat":42.95305,
    "Long":-81.296777,
    "Routes":[
      "Rt15"
    ]
  },
  {
    "Stop ID":475,
    "Abreviation":"COMMPOM1",
    "Stop Name":"Commissioners west of Pondmills EB - #475",
    "Lat":42.961323,
    "Long":-81.201406,
    "Routes":[
      "Rt16",
      " Rt24"
    ]
  },
  {
    "Stop ID":477,
    "Abreviation":"COMMPOM3",
    "Stop Name":"Commissioners east of Pondmills EB - #477",
    "Lat":42.961925,
    "Long":-81.197476,
    "Routes":[
      "Rt10",
      " Rt24"
    ]
  },
  {
    "Stop ID":478,
    "Abreviation":"COMMPOM4",
    "Stop Name":"Commissioners west of Pondmills WB - #478",
    "Lat":42.9615,
    "Long":-81.20151,
    "Routes":[
      "Rt1",
      " Rt16",
      " Rt24"
    ]
  },
  {
    "Stop ID":479,
    "Abreviation":"COMMSPR1",
    "Stop Name":"Commissioners at Springbank Park EB - #479",
    "Lat":42.958444,
    "Long":-81.328319,
    "Routes":[
      "Rt5"
    ]
  },
  {
    "Stop ID":480,
    "Abreviation":"COMMSPR2",
    "Stop Name":"Commissioners & Springbank Dr WB - #480",
    "Lat":42.955838,
    "Long":-81.318653,
    "Routes":[
      "Rt5"
    ]
  },
  {
    "Stop ID":481,
    "Abreviation":"COMMSPR4",
    "Stop Name":"Commissioners at Springbank Park WB - #481",
    "Lat":42.958611,
    "Long":-81.328577,
    "Routes":[
      "Rt5"
    ]
  },
  {
    "Stop ID":482,
    "Abreviation":"COMMSTEP",
    "Stop Name":"Commissioners at Stephen WB - #482",
    "Lat":42.962034,
    "Long":-81.339632,
    "Routes":[
      "Rt5",
      " Rt17"
    ]
  },
  {
    "Stop ID":483,
    "Abreviation":"COMMVISC",
    "Stop Name":"Commissioners at Viscount EB - #483",
    "Lat":42.9563791,
    "Long":-81.2687611,
    "Routes":[
      "Rt12",
      " Rt24"
    ]
  },
  {
    "Stop ID":487,
    "Abreviation":"CRANCOMM",
    "Stop Name":"Cranbrook at Commissioners NB - #487",
    "Lat":42.951921,
    "Long":-81.302897,
    "Routes":[
      "Rt15"
    ]
  },
  {
    "Stop ID":488,
    "Abreviation":"CRANHIMO",
    "Stop Name":"Cranbrook at Hillsmount NB - #488",
    "Lat":42.947556,
    "Long":-81.303783,
    "Routes":[
      "Rt15"
    ]
  },
  {
    "Stop ID":490,
    "Abreviation":"CRUMPAGE",
    "Stop Name":"Crumlin at Page NB - #490",
    "Lat":43.018673,
    "Long":-81.150931,
    "Routes":[
      "Rt36"
    ]
  },
  {
    "Stop ID":492,
    "Abreviation":"CULVCLA1",
    "Stop Name":"Clarke at Culver SB - #492",
    "Lat":43.01373,
    "Long":-81.18041,
    "Routes":[
      "Rt17"
    ]
  },
  {
    "Stop ID":493,
    "Abreviation":"CULVCLA2",
    "Stop Name":"1826 Culver WB - #493",
    "Lat":43.012837,
    "Long":-81.183469,
    "Routes":[
      "Rt17"
    ]
  },
  {
    "Stop ID":494,
    "Abreviation":"CULVCLA4",
    "Stop Name":"Culver at Clarke WB - #494",
    "Lat":43.013992,
    "Long":-81.180842,
    "Routes":[
      "Rt17"
    ]
  },
  {
    "Stop ID":495,
    "Abreviation":"CULVCUL1",
    "Stop Name":"Culver at Culver Cres EB - #495",
    "Lat":43.00989,
    "Long":-81.184268,
    "Routes":[
      "Rt17"
    ]
  },
  {
    "Stop ID":496,
    "Abreviation":"CULVCUL3",
    "Stop Name":"Culver east of Culver Place EB - #496",
    "Lat":43.010716,
    "Long":-81.182482,
    "Routes":[
      "Rt17"
    ]
  },
  {
    "Stop ID":497,
    "Abreviation":"CULVCUL4",
    "Stop Name":"Culver at Culver Cres. WB - #497",
    "Lat":43.010385,
    "Long":-81.182804,
    "Routes":[
      "Rt17"
    ]
  },
  {
    "Stop ID":498,
    "Abreviation":"CULVCUL5",
    "Stop Name":"Culver north of Culver Place EB - #498",
    "Lat":43.013036,
    "Long":-81.183242,
    "Routes":[
      "Rt17"
    ]
  },
  {
    "Stop ID":499,
    "Abreviation":"CULVTHR1",
    "Stop Name":"Culver at Third EB - #499",
    "Lat":43.008725,
    "Long":-81.187154,
    "Routes":[
      "Rt17"
    ]
  },
  {
    "Stop ID":500,
    "Abreviation":"CULVTHR2",
    "Stop Name":"Culver at Third WB - #500",
    "Lat":43.008742,
    "Long":-81.187181,
    "Routes":[
      "Rt17"
    ]
  },
  {
    "Stop ID":505,
    "Abreviation":"DEARBRAD",
    "Stop Name":"Dearness at Bradley NB - #505",
    "Lat":42.935217,
    "Long":-81.220893,
    "Routes":[
      "Rt13"
    ]
  },
  {
    "Stop ID":506,
    "Abreviation":"DEARDUL1",
    "Stop Name":"Dearness at Dunelm Lane NB - #506",
    "Lat":42.937012,
    "Long":-81.221301,
    "Routes":[
      "Rt13"
    ]
  },
  {
    "Stop ID":507,
    "Abreviation":"DEARDUL2",
    "Stop Name":"Dearness at Dunelm Lane SB - #507",
    "Lat":42.936711,
    "Long":-81.221339,
    "Routes":[
      "Rt13"
    ]
  },
  {
    "Stop ID":508,
    "Abreviation":"DEARWILL",
    "Stop Name":"Dearness at Willow Lane SB - #508",
    "Lat":42.938281,
    "Long":-81.22172,
    "Routes":[
      "Rt13"
    ]
  },
  {
    "Stop ID":509,
    "Abreviation":"DELAHAL2",
    "Stop Name":"Delaware Hall SB - #509",
    "Lat":43.008569,
    "Long":-81.269757,
    "Routes":[
      "Rt6",
      " Rt13",
      " Rt34"
    ]
  },
  {
    "Stop ID":510,
    "Abreviation":"DELAHALL",
    "Stop Name":"Delaware Hall NB - #510",
    "Lat":43.008818,
    "Long":-81.26958,
    "Routes":[
      "Rt10",
      " Rt13",
      " Rt34"
    ]
  },
  {
    "Stop ID":513,
    "Abreviation":"DEVECOM1",
    "Stop Name":"Deveron at Commissioners NB - #513",
    "Lat":42.961243,
    "Long":-81.194917,
    "Routes":[
      "Rt16"
    ]
  },
  {
    "Stop ID":519,
    "Abreviation":"DOONANGU",
    "Stop Name":"Doon at Angus EB - #519",
    "Lat":43.022231,
    "Long":-81.263841,
    "Routes":[
      "Rt34"
    ]
  },
  {
    "Stop ID":520,
    "Abreviation":"DOONCAIT",
    "Stop Name":"Doon at Caithness Ct EB - #520",
    "Lat":43.02174,
    "Long":-81.265561,
    "Routes":[
      "Rt34"
    ]
  },
  {
    "Stop ID":521,
    "Abreviation":"DOONMUS1",
    "Stop Name":"Doon at Muskoka Cres NB - #521",
    "Lat":43.0221925,
    "Long":-81.2596763,
    "Routes":[
      "Rt34"
    ]
  },
  {
    "Stop ID":522,
    "Abreviation":"DOONMUS2",
    "Stop Name":"Doon at Muskoka Cres SB - #522",
    "Lat":43.022768,
    "Long":-81.260646,
    "Routes":[
      "Rt34"
    ]
  },
  {
    "Stop ID":523,
    "Abreviation":"DOONRAV2",
    "Stop Name":"Doon at Ravine Ridge Way WB - #523",
    "Lat":43.020554,
    "Long":-81.267587,
    "Routes":[
      "Rt34"
    ]
  },
  {
    "Stop ID":524,
    "Abreviation":"DOONRAV4",
    "Stop Name":"Doon at Ravine Ridge Cres WB - #524",
    "Lat":43.021353,
    "Long":-81.266953,
    "Routes":[
      "Rt34"
    ]
  },
  {
    "Stop ID":525,
    "Abreviation":"DOONSUNY",
    "Stop Name":"Doon at Sunnyside WB - #525",
    "Lat":43.022169,
    "Long":-81.264278,
    "Routes":[
      "Rt34"
    ]
  },
  {
    "Stop ID":526,
    "Abreviation":"DOONWIN1",
    "Stop Name":"Doon at Windemere NB - #526",
    "Lat":43.01838,
    "Long":-81.266234,
    "Routes":[
      "Rt34"
    ]
  },
  {
    "Stop ID":527,
    "Abreviation":"DOONWIN2",
    "Stop Name":"Doon at Windemere SB - #527",
    "Lat":43.018348,
    "Long":-81.266341,
    "Routes":[
      "Rt34"
    ]
  },
  {
    "Stop ID":528,
    "Abreviation":"DOWASH1",
    "Stop Name":"Dow at Ashbury EB - #528",
    "Lat":42.939373,
    "Long":-81.204839,
    "Routes":[
      "Rt13"
    ]
  },
  {
    "Stop ID":529,
    "Abreviation":"DOWASH2",
    "Stop Name":"Dow at Ashbury WB - #529",
    "Lat":42.93947,
    "Long":-81.205079,
    "Routes":[
      "Rt13"
    ]
  },
  {
    "Stop ID":531,
    "Abreviation":"DUFFCOLB",
    "Stop Name":"Dufferin at Colborne EB - #531",
    "Lat":42.988828,
    "Long":-81.241878,
    "Routes":[
      "Rt1"
    ]
  },
  {
    "Stop ID":532,
    "Abreviation":"DUFFPICT",
    "Stop Name":"Dufferin at Picton EB - #532",
    "Lat":42.987954,
    "Long":-81.244986,
    "Routes":[
      "Rt1"
    ]
  },
  {
    "Stop ID":535,
    "Abreviation":"DUFFWEL2",
    "Stop Name":"Dufferin east of Wellington WB - #535",
    "Lat":42.987807,
    "Long":-81.245999,
    "Routes":[
      "Rt1"
    ]
  },
  {
    "Stop ID":537,
    "Abreviation":"DUNDADE1",
    "Stop Name":"Dundas at Adelaide EB - #537",
    "Lat":42.98857,
    "Long":-81.2323,
    "Routes":[
      "Rt2",
      " Rt20",
      " Rt94"
    ]
  },
  {
    "Stop ID":538,
    "Abreviation":"DUNDADE2",
    "Stop Name":"Dundas at Adelaide WB - #538",
    "Lat":42.98876,
    "Long":-81.23217,
    "Routes":[
      "Rt2",
      " Rt20",
      " Rt94"
    ]
  },
  {
    "Stop ID":539,
    "Abreviation":"DUNDARVI",
    "Stop Name":"Dundas at Arvilla WB - #539",
    "Lat":43.006433,
    "Long":-81.1702,
    "Routes":[
      "Rt2",
      " Rt37"
    ]
  },
  {
    "Stop ID":540,
    "Abreviation":"DUNDASH1",
    "Stop Name":"Dundas at Ashland EB - #540",
    "Lat":42.995436,
    "Long":-81.208452,
    "Routes":[
      "Rt2"
    ]
  },
  {
    "Stop ID":542,
    "Abreviation":"DUNDASH4",
    "Stop Name":"Dundas east of Ashland WB - #542",
    "Lat":42.995535,
    "Long":-81.208574,
    "Routes":[
      "Rt2"
    ]
  },
  {
    "Stop ID":543,
    "Abreviation":"DUNDBEA1",
    "Stop Name":"Dundas at Beatrice EB - #543",
    "Lat":43.003464,
    "Long":-81.180178,
    "Routes":[
      "Rt2"
    ]
  },
  {
    "Stop ID":544,
    "Abreviation":"DUNDBEA2",
    "Stop Name":"Dundas at Beatrice WB - #544",
    "Lat":43.003435,
    "Long":-81.180831,
    "Routes":[
      "Rt2"
    ]
  },
  {
    "Stop ID":546,
    "Abreviation":"DUNDBUR2",
    "Stop Name":"Dundas at Second WB - #546",
    "Lat":43.000759,
    "Long":-81.190277,
    "Routes":[
      "Rt2",
      " Rt94"
    ]
  },
  {
    "Stop ID":547,
    "Abreviation":"DUNDCARL",
    "Stop Name":"Dundas at Carlyle EB - #547",
    "Lat":43.008743,
    "Long":-81.161078,
    "Routes":[
      "Rt2",
      " Rt37"
    ]
  },
  {
    "Stop ID":550,
    "Abreviation":"DUNDCLK1",
    "Stop Name":"Dundas at Clarke EB - #550",
    "Lat":43.00455,
    "Long":-81.176374,
    "Routes":[
      "Rt2"
    ]
  },
  {
    "Stop ID":551,
    "Abreviation":"DUNDCLK4",
    "Stop Name":"Dundas at Clarke WB - #551",
    "Lat":43.004671,
    "Long":-81.176482,
    "Routes":[
      "Rt2"
    ]
  },
  {
    "Stop ID":552,
    "Abreviation":"DUNDCOL1",
    "Stop Name":"Dundas at Colborne EB - #552",
    "Lat":42.986356,
    "Long":-81.239964,
    "Routes":[
      "Rt2",
      " Rt20"
    ]
  },
  {
    "Stop ID":553,
    "Abreviation":"DUNDCOL2",
    "Stop Name":"Dundas at Colborne WB - #553",
    "Lat":42.986632,
    "Long":-81.239501,
    "Routes":[
      "Rt2",
      " Rt20"
    ]
  },
  {
    "Stop ID":554,
    "Abreviation":"DUNDDORI",
    "Stop Name":"Dundas at Dorinda WB - #554",
    "Lat":42.993689,
    "Long":-81.214982,
    "Routes":[
      "Rt2"
    ]
  },
  {
    "Stop ID":556,
    "Abreviation":"DUNDEAS2",
    "Stop Name":"Dundas at Eastwood WB - #556",
    "Lat":43.005664,
    "Long":-81.172855,
    "Routes":[
      "Rt2",
      " Rt37"
    ]
  },
  {
    "Stop ID":557,
    "Abreviation":"DUNDEAS3",
    "Stop Name":"Dundas east of Eastwood EB - #557",
    "Lat":43.005338,
    "Long":-81.173386,
    "Routes":[
      "Rt2",
      " Rt7",
      " Rt37"
    ]
  },
  {
    "Stop ID":560,
    "Abreviation":"DUNDEGE1",
    "Stop Name":"Dundas at Egerton EB - #560",
    "Lat":42.992935,
    "Long":-81.217246,
    "Routes":[
      "Rt2",
      " Rt94"
    ]
  },
  {
    "Stop ID":561,
    "Abreviation":"DUNDEGE2",
    "Stop Name":"Dundas at Egerton WB - #561",
    "Lat":42.993006,
    "Long":-81.217444,
    "Routes":[
      "Rt2",
      " Rt94"
    ]
  },
  {
    "Stop ID":562,
    "Abreviation":"DUNDELE1",
    "Stop Name":"Dundas at Eleanor EB - #562",
    "Lat":42.994507,
    "Long":-81.211776,
    "Routes":[
      "Rt2"
    ]
  },
  {
    "Stop ID":564,
    "Abreviation":"DUNDELIZ",
    "Stop Name":"Dundas at Elizabeth WB - #564",
    "Lat":42.98953,
    "Long":-81.22946,
    "Routes":[
      "Rt2",
      " Rt20"
    ]
  },
  {
    "Stop ID":565,
    "Abreviation":"DUNDENGL",
    "Stop Name":"Dundas at English WB - #565",
    "Lat":42.990231,
    "Long":-81.226943,
    "Routes":[
      "Rt2",
      " Rt20"
    ]
  },
  {
    "Stop ID":566,
    "Abreviation":"DUNDFIR1",
    "Stop Name":"Dundas at First EB - #566",
    "Lat":42.999356,
    "Long":-81.194651,
    "Routes":[
      "Rt2"
    ]
  },
  {
    "Stop ID":567,
    "Abreviation":"DUNDFIR2",
    "Stop Name":"Dundas east of First WB - #567",
    "Lat":42.999659,
    "Long":-81.194212,
    "Routes":[
      "Rt2"
    ]
  },
  {
    "Stop ID":569,
    "Abreviation":"DUNDFOR1",
    "Stop Name":"Dundas at Forest Lawn EB - #569",
    "Lat":43.007235,
    "Long":-81.166554,
    "Routes":[
      "Rt2",
      " Rt37"
    ]
  },
  {
    "Stop ID":570,
    "Abreviation":"DUNDFOR2",
    "Stop Name":"Dundas at Forest Lawn WB - #570",
    "Lat":43.007187,
    "Long":-81.167455,
    "Routes":[
      "Rt2",
      " Rt37"
    ]
  },
  {
    "Stop ID":572,
    "Abreviation":"DUNDHAL2",
    "Stop Name":"Dundas east of Hale WB - #572",
    "Lat":42.998415,
    "Long":-81.19858,
    "Routes":[
      "Rt2"
    ]
  },
  {
    "Stop ID":573,
    "Abreviation":"DUNDHAL3",
    "Stop Name":"Dundas west of Hale EB - #573",
    "Lat":42.998058,
    "Long":-81.199337,
    "Routes":[
      "Rt2"
    ]
  },
  {
    "Stop ID":574,
    "Abreviation":"DUNDHAL4",
    "Stop Name":"Dundas west of Hale WB - #574",
    "Lat":42.99752,
    "Long":-81.2019,
    "Routes":[
      "Rt2"
    ]
  },
  {
    "Stop ID":575,
    "Abreviation":"DUNDHARC",
    "Stop Name":"Dundalk at Harcroft Cres SB - #575",
    "Lat":42.946155,
    "Long":-81.243894,
    "Routes":[
      "Rt93"
    ]
  },
  {
    "Stop ID":576,
    "Abreviation":"DUNDHEWI",
    "Stop Name":"Dundas at Hewitt EB - #576",
    "Lat":42.99042,
    "Long":-81.22604,
    "Routes":[
      "Rt2",
      " Rt20"
    ]
  },
  {
    "Stop ID":577,
    "Abreviation":"DUNDHIG1",
    "Stop Name":"Dundas at Highbury  EB - #577",
    "Lat":42.996596,
    "Long":-81.204339,
    "Routes":[
      "Rt2",
      " Rt94"
    ]
  },
  {
    "Stop ID":578,
    "Abreviation":"DUNDHIG2",
    "Stop Name":"Dundas at Highbury WB - #578",
    "Lat":42.996795,
    "Long":-81.20435,
    "Routes":[
      "Rt2",
      " Rt94"
    ]
  },
  {
    "Stop ID":579,
    "Abreviation":"DUNDHIN1",
    "Stop Name":"Dundalk at Hines NB - #579",
    "Lat":42.945118,
    "Long":-81.244214,
    "Routes":[
      "Rt93"
    ]
  },
  {
    "Stop ID":580,
    "Abreviation":"DUNDHIN2",
    "Stop Name":"Dundalk at Hines SB - #580",
    "Lat":42.944798,
    "Long":-81.244219,
    "Routes":[
      "Rt93"
    ]
  },
  {
    "Stop ID":581,
    "Abreviation":"DUNDINDU",
    "Stop Name":"Dundas at Industrial WB - #581",
    "Lat":43.009168,
    "Long":-81.160049,
    "Routes":[
      "Rt37"
    ]
  },
  {
    "Stop ID":583,
    "Abreviation":"DUNDKELL",
    "Stop Name":"Dundas at Kellogg Lane EB - #583",
    "Lat":42.99346,
    "Long":-81.21542,
    "Routes":[
      "Rt2"
    ]
  },
  {
    "Stop ID":584,
    "Abreviation":"DUNDLYLE",
    "Stop Name":"Dundas at Lyle EB - #584",
    "Lat":42.9897,
    "Long":-81.22851,
    "Routes":[
      "Rt2",
      " Rt20"
    ]
  },
  {
    "Stop ID":585,
    "Abreviation":"DUNDMAI1",
    "Stop Name":"Dundas at Maitland EB - #585",
    "Lat":42.987275,
    "Long":-81.237054,
    "Routes":[
      "Rt2",
      " Rt20"
    ]
  },
  {
    "Stop ID":586,
    "Abreviation":"DUNDMAI2",
    "Stop Name":"Dundas at Maitland WB - #586",
    "Lat":42.987404,
    "Long":-81.236751,
    "Routes":[
      "Rt2",
      " Rt20"
    ]
  },
  {
    "Stop ID":587,
    "Abreviation":"DUNDMANI",
    "Stop Name":"Dundas at Calgary EB - #587",
    "Lat":43.002151,
    "Long":-81.18474,
    "Routes":[
      "Rt2"
    ]
  },
  {
    "Stop ID":592,
    "Abreviation":"DUNDONT1",
    "Stop Name":"Dundas at Ontario EB - #592",
    "Lat":42.99146,
    "Long":-81.2223,
    "Routes":[
      "Rt2",
      " Rt20"
    ]
  },
  {
    "Stop ID":594,
    "Abreviation":"DUNDQUE1",
    "Stop Name":"Dundas at Quebec EB - #594",
    "Lat":42.992387,
    "Long":-81.219149,
    "Routes":[
      "Rt2"
    ]
  },
  {
    "Stop ID":595,
    "Abreviation":"DUNDQUE2",
    "Stop Name":"Dundas at Quebec WB - #595",
    "Lat":42.9924,
    "Long":-81.219503,
    "Routes":[
      "Rt2",
      " Rt20"
    ]
  },
  {
    "Stop ID":597,
    "Abreviation":"DUNDREC2",
    "Stop Name":"Dundas at Rectory WB - #597",
    "Lat":42.990957,
    "Long":-81.22441,
    "Routes":[
      "Rt2",
      " Rt20"
    ]
  },
  {
    "Stop ID":600,
    "Abreviation":"DUNDRIDO",
    "Stop Name":"Dundas at Ridout EB - #600",
    "Lat":42.982377,
    "Long":-81.254162,
    "Routes":[
      "Rt2",
      " Rt9",
      " Rt12",
      " Rt19",
      " Rt20",
      " Rt106"
    ]
  },
  {
    "Stop ID":602,
    "Abreviation":"DUNDSASK",
    "Stop Name":"Dundas at Saskatoon EB - #602",
    "Lat":43.000664,
    "Long":-81.190041,
    "Routes":[
      "Rt2",
      " Rt94"
    ]
  },
  {
    "Stop ID":604,
    "Abreviation":"DUNDSDAL",
    "Stop Name":"Dundalk at Southdale SB - #604",
    "Lat":42.942477,
    "Long":-81.243882,
    "Routes":[
      "Rt93"
    ]
  },
  {
    "Stop ID":605,
    "Abreviation":"DUNDSPE1",
    "Stop Name":"Dundas at Speight EB - #605",
    "Lat":43.007731,
    "Long":-81.164719,
    "Routes":[
      "Rt2",
      " Rt37"
    ]
  },
  {
    "Stop ID":606,
    "Abreviation":"DUNDSPE2",
    "Stop Name":"Dundas east of Speight WB - #606",
    "Lat":43.008122,
    "Long":-81.163976,
    "Routes":[
      "Rt2",
      " Rt37"
    ]
  },
  {
    "Stop ID":607,
    "Abreviation":"DUNDSPE4",
    "Stop Name":"Dundas west of Speight WB - #607",
    "Lat":43.007614,
    "Long":-81.165815,
    "Routes":[
      "Rt2",
      " Rt37"
    ]
  },
  {
    "Stop ID":608,
    "Abreviation":"DUNDSTOC",
    "Stop Name":"Dundalk at Stockton NB - #608",
    "Lat":42.942628,
    "Long":-81.243814,
    "Routes":[
      "Rt93"
    ]
  },
  {
    "Stop ID":612,
    "Abreviation":"DUNDTHR",
    "Stop Name":"Dundas at Third WB - #612",
    "Lat":43.001981,
    "Long":-81.186037,
    "Routes":[
      "Rt2"
    ]
  },
  {
    "Stop ID":614,
    "Abreviation":"DUNDWAT1",
    "Stop Name":"Dundas east of Waterloo EB - #614",
    "Lat":42.985819,
    "Long":-81.241849,
    "Routes":[
      "Rt2",
      " Rt20"
    ]
  },
  {
    "Stop ID":615,
    "Abreviation":"DUNDWAT2",
    "Stop Name":"Dundas at Waterloo WB - #615",
    "Lat":42.985855,
    "Long":-81.242283,
    "Routes":[
      "Rt2",
      " Rt20"
    ]
  },
  {
    "Stop ID":617,
    "Abreviation":"DUNDWAV1",
    "Stop Name":"Dundas east of Wavell EB - #617",
    "Lat":43.006422,
    "Long":-81.169406,
    "Routes":[
      "Rt2",
      " Rt37"
    ]
  },
  {
    "Stop ID":620,
    "Abreviation":"DUNDWEL2",
    "Stop Name":"Dundas at Wellington WB - #620",
    "Lat":42.985046,
    "Long":-81.245045,
    "Routes":[
      "Rt2",
      " Rt20",
      " Rt94"
    ]
  },
  {
    "Stop ID":623,
    "Abreviation":"DUNDWIL1",
    "Stop Name":"Dundas at William EB - #623",
    "Lat":42.988001,
    "Long":-81.234357,
    "Routes":[
      "Rt2",
      " Rt20"
    ]
  },
  {
    "Stop ID":624,
    "Abreviation":"DUNDWIL2",
    "Stop Name":"Dundas at William WB - #624",
    "Lat":42.988167,
    "Long":-81.234044,
    "Routes":[
      "Rt2",
      " Rt20"
    ]
  },
  {
    "Stop ID":626,
    "Abreviation":"EDENEAS1",
    "Stop Name":"Eden at Easy EB - #626",
    "Lat":42.946669,
    "Long":-81.234692,
    "Routes":[
      "Rt4"
    ]
  },
  {
    "Stop ID":627,
    "Abreviation":"EDENEAS2",
    "Stop Name":"Eden at Easy WB - #627",
    "Lat":42.946758,
    "Long":-81.234301,
    "Routes":[
      "Rt4"
    ]
  },
  {
    "Stop ID":628,
    "Abreviation":"EDENNIX",
    "Stop Name":"Eden at Nixon WB - #628",
    "Lat":42.946509,
    "Long":-81.23719,
    "Routes":[
      "Rt4"
    ]
  },
  {
    "Stop ID":629,
    "Abreviation":"EDENVERU",
    "Stop Name":"Eden at Verulam EB - #629",
    "Lat":42.946947,
    "Long":-81.231417,
    "Routes":[
      "Rt4"
    ]
  },
  {
    "Stop ID":630,
    "Abreviation":"EDWABASE",
    "Stop Name":"Edward at Baseline SB - #630",
    "Lat":42.959872,
    "Long":-81.256607,
    "Routes":[
      "Rt15"
    ]
  },
  {
    "Stop ID":634,
    "Abreviation":"EDWAELMW",
    "Stop Name":"Edward at Elmwood SB - #634",
    "Lat":42.970163,
    "Long":-81.257901,
    "Routes":[
      "Rt15"
    ]
  },
  {
    "Stop ID":637,
    "Abreviation":"EDWAHIWY",
    "Stop Name":"Edward at Highway SB - #637",
    "Lat":42.962174,
    "Long":-81.256749,
    "Routes":[
      "Rt15"
    ]
  },
  {
    "Stop ID":639,
    "Abreviation":"EDWALANG",
    "Stop Name":"Edward at Langarth SB - #639",
    "Lat":42.965432,
    "Long":-81.257158,
    "Routes":[
      "Rt15"
    ]
  },
  {
    "Stop ID":640,
    "Abreviation":"EDWATECU",
    "Stop Name":"Edward at Tecumseh SB - #640",
    "Lat":42.96804,
    "Long":-81.257575,
    "Routes":[
      "Rt15"
    ]
  },
  {
    "Stop ID":641,
    "Abreviation":"ELMWCATH",
    "Stop Name":"Elmwood at Cathcart WB - #641",
    "Lat":42.970779,
    "Long":-81.254355,
    "Routes":[
      "Rt15"
    ]
  },
  {
    "Stop ID":642,
    "Abreviation":"ELMWMARL",
    "Stop Name":"Elmwood at Marley Place WB - #642",
    "Lat":42.971201,
    "Long":-81.250563,
    "Routes":[
      "Rt15"
    ]
  },
  {
    "Stop ID":643,
    "Abreviation":"ELMWWORT",
    "Stop Name":"Elmwood at Wortley WB - #643",
    "Lat":42.970934,
    "Long":-81.252723,
    "Routes":[
      "Rt15"
    ]
  },
  {
    "Stop ID":644,
    "Abreviation":"EMERHIW1",
    "Stop Name":"Emery at Highwood EB - #644",
    "Lat":42.963584,
    "Long":-81.270317,
    "Routes":[
      "Rt7"
    ]
  },
  {
    "Stop ID":645,
    "Abreviation":"EMERHIW2",
    "Stop Name":"Emery at Highwood WB - #645",
    "Lat":42.963681,
    "Long":-81.270068,
    "Routes":[
      "Rt7"
    ]
  },
  {
    "Stop ID":646,
    "Abreviation":"EMERPADD",
    "Stop Name":"Emery at Paddington EB - #646",
    "Lat":42.963561,
    "Long":-81.263574,
    "Routes":[
      "Rt7"
    ]
  },
  {
    "Stop ID":647,
    "Abreviation":"EMERPHY1",
    "Stop Name":"Emery at Phyllis EB - #647",
    "Lat":42.963473,
    "Long":-81.273514,
    "Routes":[
      "Rt7"
    ]
  },
  {
    "Stop ID":648,
    "Abreviation":"EMERPHY2",
    "Stop Name":"Emery at Phyllis WB - #648",
    "Lat":42.963571,
    "Long":-81.272846,
    "Routes":[
      "Rt7"
    ]
  },
  {
    "Stop ID":649,
    "Abreviation":"EMERWIN1",
    "Stop Name":"Emery west of Winston EB - #649",
    "Lat":42.963719,
    "Long":-81.266921,
    "Routes":[
      "Rt7"
    ]
  },
  {
    "Stop ID":650,
    "Abreviation":"EMERWIN2",
    "Stop Name":"Emery at Winston WB - #650",
    "Lat":42.963768,
    "Long":-81.26765,
    "Routes":[
      "Rt7"
    ]
  },
  {
    "Stop ID":651,
    "Abreviation":"ENTEHUBR",
    "Stop Name":"Enterprise at Hubrey EB - #651",
    "Lat":42.933034,
    "Long":-81.184689,
    "Routes":[
      "Rt30"
    ]
  },
  {
    "Stop ID":652,
    "Abreviation":"ENTEMID1",
    "Stop Name":"Enterprise at Midpark EB - #652",
    "Lat":42.932497,
    "Long":-81.186907,
    "Routes":[
      "Rt30"
    ]
  },
  {
    "Stop ID":653,
    "Abreviation":"ENTEPOM1",
    "Stop Name":"Enterprise at Pond Mills EB - #653",
    "Lat":42.931561,
    "Long":-81.189731,
    "Routes":[
      "Rt30"
    ]
  },
  {
    "Stop ID":654,
    "Abreviation":"ERNEBRA1",
    "Stop Name":"Ernest at Bradley NB - #654",
    "Lat":42.934816,
    "Long":-81.236399,
    "Routes":[
      "Rt4"
    ]
  },
  {
    "Stop ID":655,
    "Abreviation":"ERNEBRA2",
    "Stop Name":"Ernest at Bradley SB - #655",
    "Lat":42.934612,
    "Long":-81.236504,
    "Routes":[
      "Rt4"
    ]
  },
  {
    "Stop ID":656,
    "Abreviation":"ERNECON1",
    "Stop Name":"Ernest at Conway NB - #656",
    "Lat":42.932709,
    "Long":-81.23643,
    "Routes":[
      "Rt4"
    ]
  },
  {
    "Stop ID":657,
    "Abreviation":"ERNECON2",
    "Stop Name":"Ernest at Conway SB - #657",
    "Lat":42.933053,
    "Long":-81.236551,
    "Routes":[
      "Rt4"
    ]
  },
  {
    "Stop ID":658,
    "Abreviation":"ERNEELVI",
    "Stop Name":"Ernest at Elvira SB - #658",
    "Lat":42.939341,
    "Long":-81.238539,
    "Routes":[
      "Rt4"
    ]
  },
  {
    "Stop ID":659,
    "Abreviation":"ERNEFEN1",
    "Stop Name":"Ernest at Fennel NB - #659",
    "Lat":42.929488,
    "Long":-81.23594,
    "Routes":[
      "Rt4"
    ]
  },
  {
    "Stop ID":660,
    "Abreviation":"ERNEFEN2",
    "Stop Name":"Ernest at Fennel SB - #660",
    "Lat":42.930285,
    "Long":-81.235775,
    "Routes":[
      "Rt4"
    ]
  },
  {
    "Stop ID":661,
    "Abreviation":"ERNEFINC",
    "Stop Name":"Ernest at Finch SB - #661",
    "Lat":42.92856,
    "Long":-81.236307,
    "Routes":[
      "Rt4"
    ]
  },
  {
    "Stop ID":662,
    "Abreviation":"ERNEJAL1",
    "Stop Name":"Ernest at Jalna NB - #662",
    "Lat":42.941107,
    "Long":-81.236799,
    "Routes":[
      "Rt4"
    ]
  },
  {
    "Stop ID":663,
    "Abreviation":"ERNEJAL2",
    "Stop Name":"Ernest at Jalna SB - #663",
    "Lat":42.9407,
    "Long":-81.237401,
    "Routes":[
      "Rt4"
    ]
  },
  {
    "Stop ID":665,
    "Abreviation":"ERNEMUR1",
    "Stop Name":"Opposite Sir Aurther Carty PS - #665",
    "Lat":42.938013,
    "Long":-81.238457,
    "Routes":[
      "Rt4"
    ]
  },
  {
    "Stop ID":666,
    "Abreviation":"ERNEMUR3",
    "Stop Name":"Ernest at Muriel NB - #666",
    "Lat":42.936425,
    "Long":-81.237508,
    "Routes":[
      "Rt4"
    ]
  },
  {
    "Stop ID":667,
    "Abreviation":"ERNEPAUL",
    "Stop Name":"Ernest at Pauline SB - #667",
    "Lat":42.937018,
    "Long":-81.238241,
    "Routes":[
      "Rt4"
    ]
  },
  {
    "Stop ID":668,
    "Abreviation":"ERNESCO1",
    "Stop Name":"Ernest at Scotchmere SB - #668",
    "Lat":42.926915,
    "Long":-81.235957,
    "Routes":[
      "Rt4"
    ]
  },
  {
    "Stop ID":669,
    "Abreviation":"ERNESCO2",
    "Stop Name":"Ernest at Scotchmere NB - #669",
    "Lat":42.926654,
    "Long":-81.2358,
    "Routes":[
      "Rt4"
    ]
  },
  {
    "Stop ID":670,
    "Abreviation":"EXETMEG",
    "Stop Name":"Exeter at Meg EB - #670",
    "Lat":42.92479,
    "Long":-81.228489,
    "Routes":[
      "Rt4"
    ]
  },
  {
    "Stop ID":671,
    "Abreviation":"EXETSHOL",
    "Stop Name":"Exeter at Sholto WB - #671",
    "Lat":42.924966,
    "Long":-81.228259,
    "Routes":[
      "Rt4"
    ]
  },
  {
    "Stop ID":672,
    "Abreviation":"EXETWEL1",
    "Stop Name":"Exeter at Wellington EB - #672",
    "Lat":42.926036,
    "Long":-81.215134,
    "Routes":[
      "Rt30"
    ]
  },
  {
    "Stop ID":682,
    "Abreviation":"FANSADE1",
    "Stop Name":"Fanshawe at Adelaide EB - #682",
    "Lat":43.035026,
    "Long":-81.254038,
    "Routes":[
      "Rt25"
    ]
  },
  {
    "Stop ID":684,
    "Abreviation":"FANSADE4",
    "Stop Name":"Fanshawe west of Adelaide WB - #684",
    "Lat":43.034771,
    "Long":-81.255542,
    "Routes":[
      "Rt16",
      " Rt25",
      " Rt92"
    ]
  },
  {
    "Stop ID":688,
    "Abreviation":"FANSFRE1",
    "Stop Name":"Fanshawe east of Freemont EB - #688",
    "Lat":43.036537,
    "Long":-81.24922,
    "Routes":[
      "Rt25"
    ]
  },
  {
    "Stop ID":692,
    "Abreviation":"FANSGLE1",
    "Stop Name":"Fanshawe at Glengarry EB - #692",
    "Lat":43.03735,
    "Long":-81.24623,
    "Routes":[
      "Rt25"
    ]
  },
  {
    "Stop ID":694,
    "Abreviation":"FANSGLEN",
    "Stop Name":"Fanshawe & Glenora Dr. WB - #694",
    "Lat":43.03961,
    "Long":-81.23939,
    "Routes":[
      "Rt25"
    ]
  },
  {
    "Stop ID":695,
    "Abreviation":"FANSHAS1",
    "Stop Name":"Fanshawe at Hastings East EB - #695",
    "Lat":43.031099,
    "Long":-81.267184,
    "Routes":[
      "Rt16",
      " Rt25",
      " Rt34"
    ]
  },
  {
    "Stop ID":696,
    "Abreviation":"FANSHAS2",
    "Stop Name":"Fanshawe at Hastings WB - #696",
    "Lat":43.030992,
    "Long":-81.268125,
    "Routes":[
      "Rt16",
      " Rt19",
      " Rt25",
      " Rt34"
    ]
  },
  {
    "Stop ID":697,
    "Abreviation":"FANSHAS3",
    "Stop Name":"Fanshawe at Hastings West EB - #697",
    "Lat":43.030109,
    "Long":-81.2705,
    "Routes":[
      "Rt16",
      " Rt19",
      " Rt25",
      " Rt34"
    ]
  },
  {
    "Stop ID":698,
    "Abreviation":"FANSHIGH",
    "Stop Name":"Fanshawe at Highbury EB - #698",
    "Lat":43.042919,
    "Long":-81.227496,
    "Routes":[
      "Rt25"
    ]
  },
  {
    "Stop ID":699,
    "Abreviation":"FANSJEN2",
    "Stop Name":"Fanshawe at Jennifer 1 WB - #699",
    "Lat":43.030043,
    "Long":-81.271423,
    "Routes":[
      "Rt16",
      " Rt19",
      " Rt25",
      " Rt34"
    ]
  },
  {
    "Stop ID":700,
    "Abreviation":"FANSJEN4",
    "Stop Name":"Fanshawe at Jennifer 2 WB - #700",
    "Lat":43.029285,
    "Long":-81.273907,
    "Routes":[
      "Rt16",
      " Rt19",
      " Rt25",
      " Rt34",
      " Rt92"
    ]
  },
  {
    "Stop ID":701,
    "Abreviation":"FANSLOU1",
    "Stop Name":"Fanshawe at Louise EB - #701",
    "Lat":43.024436,
    "Long":-81.289879,
    "Routes":[
      "Rt19"
    ]
  },
  {
    "Stop ID":702,
    "Abreviation":"FANSLOU2",
    "Stop Name":"Fanshawe at Louise WB - #702",
    "Lat":43.024713,
    "Long":-81.289437,
    "Routes":[
      "Rt19"
    ]
  },
  {
    "Stop ID":703,
    "Abreviation":"FANSMCLE",
    "Stop Name":"Fanshawe at McLean WB - #703",
    "Lat":43.041634,
    "Long":-81.232485,
    "Routes":[
      "Rt25"
    ]
  },
  {
    "Stop ID":704,
    "Abreviation":"FANSNCR1",
    "Stop Name":"Fanshawe west of North Centre EB - #704",
    "Lat":43.028057,
    "Long":-81.277532,
    "Routes":[
      "Rt16",
      " Rt19",
      " Rt25",
      " Rt34"
    ]
  },
  {
    "Stop ID":705,
    "Abreviation":"FANSNCR2",
    "Stop Name":"Fanshawe west of North Centre WB - #705",
    "Lat":43.028239,
    "Long":-81.277573,
    "Routes":[
      "Rt16",
      " Rt19",
      " Rt25",
      " Rt34"
    ]
  },
  {
    "Stop ID":706,
    "Abreviation":"FANSNCR3",
    "Stop Name":"Fanshawe east of North Centre EB - #706",
    "Lat":43.028932,
    "Long":-81.274472,
    "Routes":[
      "Rt16",
      " Rt19",
      " Rt25",
      " Rt34",
      " Rt92"
    ]
  },
  {
    "Stop ID":707,
    "Abreviation":"FANSNCR4",
    "Stop Name":"Fanshawe east of North Centre WB - #707",
    "Lat":43.026276,
    "Long":-81.284527,
    "Routes":[
      "Rt19"
    ]
  },
  {
    "Stop ID":708,
    "Abreviation":"FANSPHIL",
    "Stop Name":"Fanshawe at Phillbrook WB - #708",
    "Lat":43.032115,
    "Long":-81.264402,
    "Routes":[
      "Rt25",
      " Rt34"
    ]
  },
  {
    "Stop ID":709,
    "Abreviation":"FANSRIC1",
    "Stop Name":"Fanshawe east of Richmond EB - #709",
    "Lat":43.027429,
    "Long":-81.27953,
    "Routes":[
      "Rt16",
      " Rt25",
      " Rt34"
    ]
  },
  {
    "Stop ID":711,
    "Abreviation":"FANSSTO1",
    "Stop Name":"Fanshawe at Stoneybrook East EB - #711",
    "Lat":43.033409,
    "Long":-81.25933,
    "Routes":[
      "Rt16",
      " Rt25"
    ]
  },
  {
    "Stop ID":712,
    "Abreviation":"FANSSTO2",
    "Stop Name":"Fanshawe at Stoneybrook East WB - #712",
    "Lat":43.033749,
    "Long":-81.258955,
    "Routes":[
      "Rt16",
      " Rt25"
    ]
  },
  {
    "Stop ID":713,
    "Abreviation":"FANSSTO3",
    "Stop Name":"Fanshawe at Stoneybrook West EB - #713",
    "Lat":43.032203,
    "Long":-81.263454,
    "Routes":[
      "Rt16",
      " Rt25"
    ]
  },
  {
    "Stop ID":717,
    "Abreviation":"FARRPROU",
    "Stop Name":"Farrah at Proudfoot EB - #717",
    "Lat":42.986899,
    "Long":-81.289859,
    "Routes":[
      "Rt33"
    ]
  },
  {
    "Stop ID":721,
    "Abreviation":"FERNCONT",
    "Stop Name":"Ferndale at Country Club Drive WB - #721",
    "Lat":42.946932,
    "Long":-81.25205,
    "Routes":[
      "Rt93"
    ]
  },
  {
    "Stop ID":733,
    "Abreviation":"FLORASH1",
    "Stop Name":"Florence at Ashland EB - #733",
    "Lat":42.992132,
    "Long":-81.20756,
    "Routes":[
      "Rt7"
    ]
  },
  {
    "Stop ID":734,
    "Abreviation":"FLORASH2",
    "Stop Name":"Florence at Ashland WB - #734",
    "Lat":42.992391,
    "Long":-81.207153,
    "Routes":[
      "Rt7"
    ]
  },
  {
    "Stop ID":736,
    "Abreviation":"FLOREGE1",
    "Stop Name":"Florence at Egerton EB - #736",
    "Lat":42.989745,
    "Long":-81.21583,
    "Routes":[
      "Rt7"
    ]
  },
  {
    "Stop ID":737,
    "Abreviation":"FLOREGE2",
    "Stop Name":"Florence at Egerton WB - #737",
    "Lat":42.989892,
    "Long":-81.21581,
    "Routes":[
      "Rt7"
    ]
  },
  {
    "Stop ID":738,
    "Abreviation":"FLORELE1",
    "Stop Name":"Florence at Eleanor EB - #738",
    "Lat":42.991399,
    "Long":-81.210202,
    "Routes":[
      "Rt7"
    ]
  },
  {
    "Stop ID":739,
    "Abreviation":"FLORELE2",
    "Stop Name":"Florence at Eleanor WB - #739",
    "Lat":42.991506,
    "Long":-81.210279,
    "Routes":[
      "Rt7"
    ]
  },
  {
    "Stop ID":740,
    "Abreviation":"FLORFAI1",
    "Stop Name":"Florence at Fairgrounds south Gate EB - #740",
    "Lat":42.988583,
    "Long":-81.218615,
    "Routes":[
      "Rt7"
    ]
  },
  {
    "Stop ID":741,
    "Abreviation":"FLORFAI2",
    "Stop Name":"Florence at Fairgrounds south Gate WB - #741",
    "Lat":42.988638,
    "Long":-81.218949,
    "Routes":[
      "Rt7"
    ]
  },
  {
    "Stop ID":743,
    "Abreviation":"FLORHIG2",
    "Stop Name":"Florence at Highbury WB - #743",
    "Lat":42.994128,
    "Long":-81.203191,
    "Routes":[
      "Rt7"
    ]
  },
  {
    "Stop ID":744,
    "Abreviation":"FLORKEL1",
    "Stop Name":"Florence at Kellogg Lane EB - #744",
    "Lat":42.990512,
    "Long":-81.213309,
    "Routes":[
      "Rt7"
    ]
  },
  {
    "Stop ID":745,
    "Abreviation":"FLORKEL2",
    "Stop Name":"Florence at Kellogg Lane WB - #745",
    "Lat":42.990585,
    "Long":-81.213424,
    "Routes":[
      "Rt7"
    ]
  },
  {
    "Stop ID":750,
    "Abreviation":"FULLREGA",
    "Stop Name":"Fuller at Regal WB - #750",
    "Lat":43.022343,
    "Long":-81.225107,
    "Routes":[
      "Rt10"
    ]
  },
  {
    "Stop ID":752,
    "Abreviation":"FULLVES2",
    "Stop Name":"Fuller at Vesta WB - #752",
    "Lat":43.023228,
    "Long":-81.222149,
    "Routes":[
      "Rt10"
    ]
  },
  {
    "Stop ID":756,
    "Abreviation":"GAINWON1",
    "Stop Name":"Sherwood Forest Mall EB - #756",
    "Lat":43.006225,
    "Long":-81.306097,
    "Routes":[
      "Rt9"
    ]
  },
  {
    "Stop ID":757,
    "Abreviation":"GAINWON2",
    "Stop Name":"Sherwood Forest Mall WB - #757",
    "Lat":43.006698,
    "Long":-81.304967,
    "Routes":[
      "Rt9"
    ]
  },
  {
    "Stop ID":759,
    "Abreviation":"GARDBER1",
    "Stop Name":"Gardenwood at Berkshire NB - #759",
    "Lat":42.962908,
    "Long":-81.284862,
    "Routes":[
      "Rt5",
      " Rt7"
    ]
  },
  {
    "Stop ID":762,
    "Abreviation":"GARDRID1",
    "Stop Name":"Gardenwood at Ridgewood EB - #762",
    "Lat":42.966547,
    "Long":-81.283639,
    "Routes":[
      "Rt5"
    ]
  },
  {
    "Stop ID":763,
    "Abreviation":"GARDRID2",
    "Stop Name":"Gardenwood east of Ridgewood WB - #763",
    "Lat":42.967144,
    "Long":-81.282587,
    "Routes":[
      "Rt5"
    ]
  },
  {
    "Stop ID":766,
    "Abreviation":"GARDSOU2",
    "Stop Name":"Gardenwood at Southcrest SB - #766",
    "Lat":42.964872,
    "Long":-81.285158,
    "Routes":[
      "Rt5"
    ]
  },
  {
    "Stop ID":767,
    "Abreviation":"GARDSOU3",
    "Stop Name":"57 Gardenwood NB - #767",
    "Lat":42.964982,
    "Long":-81.285133,
    "Routes":[
      "Rt5"
    ]
  },
  {
    "Stop ID":768,
    "Abreviation":"GLASMORN",
    "Stop Name":"Glasgow at Mornington NB - #768",
    "Lat":43.001114,
    "Long":-81.221698,
    "Routes":[
      "Rt20"
    ]
  },
  {
    "Stop ID":783,
    "Abreviation":"GOREBRAE",
    "Stop Name":"Gore at Braeside WB - #783",
    "Lat":42.978433,
    "Long":-81.172081,
    "Routes":[
      "Rt5"
    ]
  },
  {
    "Stop ID":785,
    "Abreviation":"GOREFIRE",
    "Stop Name":"Gore at Firestone WB - #785",
    "Lat":42.979208,
    "Long":-81.169434,
    "Routes":[
      "Rt5"
    ]
  },
  {
    "Stop ID":790,
    "Abreviation":"GRANHIG1",
    "Stop Name":"Grand at High EB - #790",
    "Lat":42.971973,
    "Long":-81.240767,
    "Routes":[
      "Rt6"
    ]
  },
  {
    "Stop ID":791,
    "Abreviation":"GRANHIG2",
    "Stop Name":"Grand at High WB - #791",
    "Lat":42.972112,
    "Long":-81.24004,
    "Routes":[
      "Rt6"
    ]
  },
  {
    "Stop ID":792,
    "Abreviation":"GRANHIG4",
    "Stop Name":"84 Grand WB - #792",
    "Lat":42.971894,
    "Long":-81.241983,
    "Routes":[
      "Rt6"
    ]
  },
  {
    "Stop ID":800,
    "Abreviation":"GRENADEL",
    "Stop Name":"Grenfell at Adelaide WB - #800",
    "Lat":43.038129,
    "Long":-81.256174,
    "Routes":[
      "Rt34"
    ]
  },
  {
    "Stop ID":801,
    "Abreviation":"GRENGREN",
    "Stop Name":"Grenfell at Grenfell Cr WB - #801",
    "Lat":43.03882,
    "Long":-81.251795,
    "Routes":[
      "Rt34"
    ]
  },
  {
    "Stop ID":803,
    "Abreviation":"GRENMIDA",
    "Stop Name":"Grenfell at Midale WB - #803",
    "Lat":43.040496,
    "Long":-81.248311,
    "Routes":[
      "Rt34"
    ]
  },
  {
    "Stop ID":804,
    "Abreviation":"GREYCOLB",
    "Stop Name":"Grey at Colborne WB - #804",
    "Lat":42.979241,
    "Long":-81.236529,
    "Routes":[
      "Rt1"
    ]
  },
  {
    "Stop ID":805,
    "Abreviation":"GREYWATE",
    "Stop Name":"Grey at Waterloo WB - #805",
    "Lat":42.978687,
    "Long":-81.238647,
    "Routes":[
      "Rt1"
    ]
  },
  {
    "Stop ID":808,
    "Abreviation":"GRIFBBA2",
    "Stop Name":"Griffith at Byron Baseline SB - #808",
    "Lat":42.951835,
    "Long":-81.340118,
    "Routes":[
      "Rt5"
    ]
  },
  {
    "Stop ID":810,
    "Abreviation":"GRIFBOLE",
    "Stop Name":"Griffith at Boler EB - #810",
    "Lat":42.944079,
    "Long":-81.329386,
    "Routes":[
      "Rt5"
    ]
  },
  {
    "Stop ID":811,
    "Abreviation":"GRIFCOMM",
    "Stop Name":"Griffith at Commissioners SB - #811",
    "Lat":42.962581,
    "Long":-81.342749,
    "Routes":[
      "Rt5",
      " Rt17"
    ]
  },
  {
    "Stop ID":812,
    "Abreviation":"GRIFDEA2",
    "Stop Name":"Boler Mountain SB - #812",
    "Lat":42.946162,
    "Long":-81.33628,
    "Routes":[
      "Rt5"
    ]
  },
  {
    "Stop ID":814,
    "Abreviation":"GRIFFAIR",
    "Stop Name":"Griffith at Fairlane SB - #814",
    "Lat":42.949289,
    "Long":-81.338973,
    "Routes":[
      "Rt5"
    ]
  },
  {
    "Stop ID":816,
    "Abreviation":"GRIFHEMO",
    "Stop Name":"Griffith at Helena Montague SB - #816",
    "Lat":42.959851,
    "Long":-81.34213,
    "Routes":[
      "Rt5",
      " Rt17"
    ]
  },
  {
    "Stop ID":817,
    "Abreviation":"GRIFNORM",
    "Stop Name":"Griffith at Norman SB - #817",
    "Lat":42.956299,
    "Long":-81.34119,
    "Routes":[
      "Rt5",
      " Rt17"
    ]
  },
  {
    "Stop ID":818,
    "Abreviation":"GRIFROBW",
    "Stop Name":"Griffith at Robinwood EB - #818",
    "Lat":42.942271,
    "Long":-81.333418,
    "Routes":[
      "Rt5"
    ]
  },
  {
    "Stop ID":822,
    "Abreviation":"GRIFWIDD",
    "Stop Name":"Griffith at Widdicomb SB - #822",
    "Lat":42.944539,
    "Long":-81.33588,
    "Routes":[
      "Rt5"
    ]
  },
  {
    "Stop ID":828,
    "Abreviation":"HALEBEAT",
    "Stop Name":"Hale at Beattie SB - #828",
    "Lat":42.994478,
    "Long":-81.197049,
    "Routes":[
      "Rt2"
    ]
  },
  {
    "Stop ID":829,
    "Abreviation":"HALEBRY1",
    "Stop Name":"Hale at Brydges NB - #829",
    "Lat":42.99049,
    "Long":-81.195112,
    "Routes":[
      "Rt2"
    ]
  },
  {
    "Stop ID":830,
    "Abreviation":"HALEBRY2",
    "Stop Name":"Hale at Brydges SB - #830",
    "Lat":42.990805,
    "Long":-81.195321,
    "Routes":[
      "Rt2"
    ]
  },
  {
    "Stop ID":831,
    "Abreviation":"HALEDOU1",
    "Stop Name":"Hale at Doulton NB - #831",
    "Lat":42.996102,
    "Long":-81.197705,
    "Routes":[
      "Rt2"
    ]
  },
  {
    "Stop ID":832,
    "Abreviation":"HALEDOU2",
    "Stop Name":"Hale at Burslem SB - #832",
    "Lat":42.99656,
    "Long":-81.19806,
    "Routes":[
      "Rt2"
    ]
  },
  {
    "Stop ID":833,
    "Abreviation":"HALEDUND",
    "Stop Name":"Hale at Dundas NB - #833",
    "Lat":42.997836,
    "Long":-81.19854,
    "Routes":[
      "Rt2"
    ]
  },
  {
    "Stop ID":834,
    "Abreviation":"HALEEAST",
    "Stop Name":"Hale at Eastman NB - #834",
    "Lat":42.994041,
    "Long":-81.196761,
    "Routes":[
      "Rt2"
    ]
  },
  {
    "Stop ID":835,
    "Abreviation":"HALEELLS",
    "Stop Name":"Hale at Ellsworth SB - #835",
    "Lat":42.979462,
    "Long":-81.19096,
    "Routes":[
      "Rt5"
    ]
  },
  {
    "Stop ID":836,
    "Abreviation":"HALEGRAY",
    "Stop Name":"Hale at Graydon NB - #836",
    "Lat":42.992419,
    "Long":-81.196006,
    "Routes":[
      "Rt2"
    ]
  },
  {
    "Stop ID":837,
    "Abreviation":"HALEMAGE",
    "Stop Name":"Hale at Magee SB - #837",
    "Lat":42.981498,
    "Long":-81.191082,
    "Routes":[
      "Rt5"
    ]
  },
  {
    "Stop ID":838,
    "Abreviation":"HALEMONT",
    "Stop Name":"Hale at Montague Place SB - #838",
    "Lat":42.992916,
    "Long":-81.196312,
    "Routes":[
      "Rt2"
    ]
  },
  {
    "Stop ID":839,
    "Abreviation":"HALESTE1",
    "Stop Name":"Hale at Stevenson NB - #839",
    "Lat":42.988161,
    "Long":-81.194023,
    "Routes":[
      "Rt2"
    ]
  },